stop_id,stop_code,stop_name,stop_lat,stop_lon,location_type,parent_station,platform_code
2000G000208,wocdwtgw,"Kidderminster Bus Station",52.386330,-2.250480,0,200G001001,8
2000G000213,wocgpwdg,"Town Hall",52.386814,-2.248103,,,
2000G000215,wocgpmga,"Oxford Street",52.385624,-2.245334,,,
2000G000387,wocdtapm,"Well Brook Nursery",52.327709,-1.943396,,,
2000G000388,wocdtapt,"Well Brook Nursery",52.327751,-1.943777,,,
2000G000390,wocdtapw,"Fishing Line Road",52.311966,-1.940364,,,
2000G000391,wocdtata,"Fishing Line Road",52.312450,-1.940320,,,
2000G000392,wocdtatd,"Windsor Road",52.314320,-1.941139,,,
2000G000394,wocdtatg,"Weights Lane",52.320202,-1.943009,,,
2000G000396,wocdtatm,"Hewell Road",52.307255,-1.944433,,,
2000G001200,wocgamdm,"Rose & Crown",52.351936,-1.883097,,,
2000G001201,wocgamdp,"Rose & Crown",52.353142,-1.884724,,,
2000G001401,wocgamga,"Church Green West",52.307568,-1.941280,,,
2000G001601,wocdgpaj,"Ombersley Street East",52.267216,-2.152784,,,
2000G001605,wocdgpat,"Victoria Square",52.267174,-2.150791,,,
2000G00389,wocdptpt,"Garage",52.324966,-1.940978,,,
2000G00393,wocdptwd,"Weights Lane",52.320030,-1.942848,,,
2000G010001,wocdmtad,"Church",52.324375,-2.045741,,,
2000G010002,wocdmjtj,"Dragoon Fields",52.323376,-2.047619,,,
2000G010003,wocdmjtm,"New Road Shops",52.323441,-2.048587,,,
2000G010004,wocdmjtp,"Station Approach",52.322857,-2.048058,,,
2000G010100,wocdmjwa,"Pleck Stores",52.339378,-2.067891,,,
2000G010102,wocdmjwg,"Shops",52.340584,-2.066880,,,
2000G010201,wocdmjwj,"Chadsgrove School",52.361542,-2.062697,,,
2000G010203,wocdmjwp,"Chadsgrove School",52.361553,-2.062345,,,
2000G010204,wocdmjwt,"Farley Lane",52.402275,-2.064180,,,
2000G010300,wocdmpad,"Post Office",52.418121,-2.057087,,,
2000G010301,wocdmpag,"The Sun Inn",52.418419,-2.055779,,,
2000G010400,wocdmpaj,"Blue Bird Park",52.430214,-2.050411,,,
2000G010490,wocdmpam,"Blue Bird Park",52.429989,-2.050440,,,
2000G014500,wocdtmgm,"Woodrow Centre",52.287865,-1.914947,,,
2000G014675,wocdtmgw,"Woodrow Centre",52.287838,-1.914698,,,
2000G014676,wocdtmja,"North of Studley Road Island",52.284821,-1.910789,,,
2000G014677,wocdtmjd,"Howard Road",52.289833,-1.915749,,,
2000G014678,wocdtmjg,"Howard Road",52.289509,-1.915471,,,
2000G014681,wocdtmjt,"Greenlands Post Office",52.294495,-1.920359,,,
2000G014682,wocdtpmd,"Greenlands Post Office",52.293385,-1.918719,,,
2000G014684,wocdtpmj,"Watery Lane",52.295574,-1.921208,,,
2000G014685,wocdtpmp,"Watery Lane",52.296940,-1.922496,,,
2000G014686,wocdtpmt,"Barlich Way",52.298531,-1.923563,,,
2000G014687,wocdtpmw,"Barlich Way",52.299694,-1.924383,,,
2000G014688,wocdtpta,"Arrowdale Road",52.301258,-1.925289,,,
2000G014689,wocdtptd,"Arrowdale Road",52.300655,-1.924542,,,
2000G014901,wocdjtdt,"Church Hill Church",52.315666,-1.908321,,,
2000G014991,wocdjtgj,"Paper Mill Drive",52.313080,-1.913637,,,
2000G014992,wocdjtgm,"Church Hill Way",52.314426,-1.912372,,,
2000G015000,wocdmjdg,"Alexandra Hospital",52.280670,-1.913392,,,
2000G019001,wocdjmjt,"Railway Station",52.384792,-2.238747,,,
2000G019900,wocdgawd,"Corbett Drive",52.294903,-2.085388,,,
2000G019901,wocdgawg,"Corbett Drive",52.294064,-2.086501,,,
2000G019903,wocgpjta,"Sagebury Drive",52.292023,-2.088109,,,
2000G019904,wocgtdja,"Sagebury Drive",52.292732,-2.087275,,,
2000G020000,wocdgawm,"Shops",52.302525,-2.085286,,,
2000G020001,wocgpwpa,"Walls Road",52.303616,-2.084276,,,
2000G020002,wocgtdtj,"Walls Road",52.303650,-2.084056,,,
2000G020100,wocdgawp,"Hanbury Turn Inn",52.313759,-2.077680,,,
2000G020101,wocdgawt,"Hanbury Turn Inn",52.313454,-2.077753,,,
2000G020201,wocdgdag,"Morrisons Store",52.316887,-2.064145,,,
2000G020301,wocdgdam,"Bromsgrove Bus Station",52.335964,-2.060928,0,200G002001,1
2000G020302,wocdgdap,"Bromsgrove Bus Station",52.335911,-2.061031,0,200G002001,2
2000G020309,wocgjamt,"Church Street",52.336620,-2.063806,,,
2000G020400,wocgjapd,"St Richard's Road",52.289909,-2.112648,,,
2000G020500,wocgjapg,"Astwood Lane",52.289822,-2.089014,,,
2000G021300,wocgjatd,"Church",52.306217,-2.077549,,,
2000G021400,wocgjatg,"Avoncroft Museum",52.315121,-2.071668,,,
2000G021401,wocgtagt,"Avoncroft Museum",52.315113,-2.072269,,,
2000G021502,wocdmjmt,"The Crown Inn",52.292133,-2.114955,,,
2000G021600,wocdmjmw,"Birmingham Road",52.354824,-2.046361,,,
2000G021601,wocdmjpa,"Hillside Drive",52.352451,-2.047533,,,
2000G021602,wocdmjpd,"First School",52.351078,-2.045065,,,
2000G021603,wocdmjpg,"Littleheath Lane",52.350773,-2.042584,,,
2000G021700,wocdmjpm,"Marlbrook Gardens",52.365406,-2.047414,,,
2000G021801,wocdmjta,"St. Chads Church",52.393497,-2.018566,,,
2000G021803,wocgpgwt,"St. Chads Church",52.393219,-2.019080,,,
2000G025500,wocdwdma,"Sainsbury's Store",52.313538,-1.938866,,,
2000G025700,wocdwdmg,"Village Hall",52.343544,-1.936712,,,
2000G025701,wocdwdmj,"Village Hall",52.343464,-1.936536,,,
2000G025800,wocdwdmp,"Red Lion",52.352879,-1.960968,,,
2000G025801,wocdwdmt,"The Square",52.352249,-1.959617,,,
2000G025902,wocdwdpd,"Snake Terrace",52.353115,-1.965666,,,
2000G026000,wocdwdpg,"Ash Lane",52.370586,-1.955253,,,
2000G026001,wocdwdpj,"Ash Lane",52.370693,-1.955591,,,
2000G026102,wocdwdpm,"Waterside Orchard Park",52.372055,-1.959761,,,
2000G026200,wocdwdpt,"Poplar Drive",52.362568,-1.989874,,,
2000G026202,wocdwdta,"Sandhills Road",52.360489,-1.989566,,,
2000G026400,wocdadtg,"Rednal Island",52.380241,-2.001254,,,
2000G026401,wocgtpad,"Reservoir Road",52.376682,-1.998962,,,
2000G026402,wocgtmwg,"Reservoir Road",52.377113,-1.999550,,,
2000G026409,wocdadtj,"Rednal Island",52.380295,-2.001034,,,
2000G026500,wocdadtm,"Lickey Church",52.375198,-2.009832,,,
2000G026501,wocdadtp,"Parish Hall",52.373741,-2.011786,,,
2000G026502,wocdadtw,"Parish Hall",52.374496,-2.010846,,,
2000G026600,wocdadwa,"Lowes Court",52.345695,-2.055248,,,
2000G026800,wocdadwg,"Fordhouse Road",52.330753,-2.055213,,,
2000G026801,wocdadwj,"Windsor Street",52.333504,-2.060133,,,
2000G028000,wocdpgap,"King George Close",52.345230,-2.067489,,,
2000G028800,wocdpgdw,"Greenhill near Alcester Road",52.343452,-2.025021,,,
2000G028900,wocgmdmj,"Post Office",52.348667,-2.015305,,,
2000G028901,wocgmdmp,"Post Office",52.348713,-2.015540,,,
2000G034300,wocdagwa,"Branson's Cross",52.333698,-1.869614,,,
2000G034301,wocdagwd,"Slip road",52.332466,-1.868180,,,
2000G034303,wocdagwj,"Bransons Cross Roundabout",52.332237,-1.871292,,,
2000G034500,wocdagwm,"Watery Lane",52.360584,-1.889888,,,
2000G034501,wocdagwp,"Barkers Lane",52.362408,-1.889135,,,
2000G034502,wocdagwt,"Watery Lane",52.361130,-1.889064,,,
2000G034591,wocdajad,"Dumble Pit Lane",52.358299,-1.888293,,,
2000G034600,wocdajaj,"Wythall Island",52.374969,-1.885196,,,
2000G034601,wocgdapm,"Wythall Island",52.373882,-1.884053,,,
2000G034691,wocgdapt,"Wythall Island",52.373981,-1.883994,,,
2000G034700,wocgdapw,"Silver Street",52.383404,-1.884411,,,
2000G034800,wocgdata,"Pack Horse Inn",52.390858,-1.884773,,,
2000G035700,wocgdatd,"Church",52.372238,-1.893429,,,
2000G035900,wocgdatj,"Trueman's Heath Crossroads",52.391228,-1.871739,,,
2000G035990,wocgdatm,"Trueman's Heath Crossroads",52.391159,-1.871445,,,
2000G036000,wocgdatp,"Woodrush School",52.388290,-1.879432,,,
2000G036101,wocgdawa,"Peterbrook Road",52.394844,-1.854813,,,
2000G036102,wocgpgwa,"Peterbrook Road",52.394905,-1.855004,,,
2000G036103,wocgpjat,"Rolan Drive",52.397682,-1.852629,,,
2000G036104,wocgpjam,"Rolan Drive",52.397591,-1.852453,,,
2000G037300,wocdjtjd,"Beoley First School",52.323856,-1.896009,,,
2000G037400,wocdjtjg,"Moss Lane",52.324810,-1.888377,,,
2000G037490,wocdjtjm,"Moss Lane",52.324638,-1.888598,,,
2000G038300,wocdjtjw,"The Old House at Home",52.403389,-2.179097,,,
2000G038301,wocdjtma,"The Old House at Home",52.403435,-2.179450,,,
2000G038403,wocdjtmp,"Station Drive",52.406345,-2.175126,,,
2000G038700,wocgapjp,"Forge Lane",52.392113,-2.118758,,,
2000G038702,wocgapjw,"Talbot Inn",52.391644,-2.118507,,,
2000G038703,wocgapma,"Talbot Inn",52.391708,-2.118287,,,
2000G039100,wocgapmp,"Free Church",52.418945,-2.143871,,,
2000G039101,wocgapmt,"Free Church",52.418728,-2.144179,,,
2000G039102,wocgjmwp,"Station Road",52.421436,-2.142967,,,
2000G039200,wocgjmwt,"Summervale Road",52.417507,-2.144866,,,
2000G039201,wocgjpad,"Summervale Road",52.417336,-2.145439,,,
2000G088700,wocdagtj,"Portway Hotel",52.351215,-1.882864,,,
2000G093000,wocdgpjg,"Hillview Road",52.395611,-2.030529,,,
2000G093300,wocdgpjm,"Church Hill",52.421261,-2.012551,,,
2000G094800,wocdgpjt,"Church",52.374397,-2.078035,,,
2000G094801,wocdgpjw,"Church",52.373985,-2.077961,,,
2000G095100,wocdgpma,"Paramount Showrooms",52.425362,-2.129083,,,
2000G095101,wocdgpmd,"Paramount Showrooms",52.425877,-2.128996,,,
2000G102300,wocgdjpt,"Heath Drive",52.402645,-2.225409,,,
2000G102400,wocdjatw,"Heath Drive",52.402607,-2.225776,,,
2000G152800,wocgadjd,"Robin Hood Inn",52.284744,-2.124625,,,
2000G154000,wocgadjt,"Mearse Lane",52.386890,-2.083465,,,
2000G154100,wocgadjw,"Swan Inn",52.376331,-2.079420,,,
2000G154101,wocgadma,"Swan Inn",52.377266,-2.079392,,,
2000G155700,wocdwjgw,"St. Bede's School",52.302902,-1.927574,,,
2000G156701,wocdwjmg,"Waitrose",52.269157,-2.146621,,,
2000G158300,wocdjdmw,"All Saints Road",52.340832,-2.053259,,,
2000G195400,wocgjgam,"Hagley- Little Chef- Cross Keys Shelter",52.413902,-2.150809,,,
2000G196900,wocdapmp,"Land Oak",52.392246,-2.232527,,,
2000G196901,wocdapmt,"Bowling Green",52.390556,-2.233165,,,
2000G196998,wocdjwgw,"Cricket Ground",52.388542,-2.233125,,,
2000G196999,wocdjwja,"Villiers Street",52.385887,-2.233684,,,
2000G198300,wocdjgpd,"Cricket Ground",52.388443,-2.233418,,,
2000G200400,wocdpapw,"Aintree Close",52.365116,-2.055447,,,
2000G321912,wocdtdpa,"Poplar Lane",52.413525,-2.058419,,,
2000G323001,wocdtdpd,"Robin Hood Inn",52.284195,-2.125064,,,
2000G323003,wocdtdpg,"Chateau Impney",52.276920,-2.135171,,,
2000G323004,wocdtdpj,"Dodderhill Road",52.271751,-2.141706,,,
2000G323005,wocdtdpm,"Dodderhill Road",52.271328,-2.141910,,,
2000G323027,wocdpgpd,"Paper Mill Lane",52.296303,-2.110112,,,
2000G323028,wocdwpam,"Paper Mill Lane",52.296833,-2.109131,,,
2000G323033,wocdwpdg,"Gibb Lane School",52.363064,-2.057104,,,
2000G323034,wocdwpdj,"Woodrow Lane",52.372005,-2.045408,,,
2000G323035,wocdwpdm,"Gannow Walk",52.390888,-2.028704,,,
2000G323036,wocdwpdp,"Callowbridge Road",52.395153,-2.019507,,,
2000G323037,wocdwpdt,"Beverley Road",52.394344,-2.015010,,,
2000G323038,wocdwpdw,"Beverley Road",52.394173,-2.016185,,,
2000G323039,wocdwpga,"Library Way",52.392437,-2.021960,,,
2000G323040,wocdwpgd,"Library Way",52.392403,-2.022724,,,
2000G323064,wocdataj,"Middleton Road",52.345360,-2.062910,,,
2000G323071,wocdtgwa,"Frederick Eary House",52.286316,-1.913117,,,
2000G323072,wocdtgwd,"Frederick Eary House",52.286190,-1.912795,,,
2000G323082,wocdtdja,"Tanhouse Lane",52.319630,-1.908269,,,
2000G323114,wocdtgta,"Auxerre Avenue",52.292152,-1.917886,,,
2000G323120,wocdtgtw,"Hewell Road",52.307373,-1.944316,,,
2000G323136,wocdpdjw,"Meadowhill Road",52.311771,-1.931798,,,
2000G323137,wocdpdma,"Meadowhill Road",52.311798,-1.931314,,,
2000G323196,wocgjgpa,"Sainsbury's Local Store",52.346710,-2.060622,,,
2000G323197,wocgjgpd,"Sainsbury's Local Store",52.346809,-2.060827,,,
2000G323198,wocgjgpg,"Springs Avenue",52.365913,-2.058943,,,
2000G323199,wocgjgpj,"Bracken Grove",52.366417,-2.059208,,,
2000G323252,wocgatdp,"Groveley Hall",52.386753,-1.958572,,,
2000G323253,wocgatdt,"Grovely Farm",52.382950,-1.957664,,,
2000G323254,wocgatdw,"Grovely Farm",52.382832,-1.957459,,,
2000G323255,wocgatga,"Lea End Lane",52.376232,-1.958259,,,
2000G323256,wocgatgd,"Roberts Corner",52.361374,-1.966129,,,
2000G323258,wocgatgm,"Grange Lane",52.337494,-1.953672,,,
2000G323259,wocgatgp,"Grange Lane",52.337025,-1.953614,,,
2000G323260,wocgatgt,"Cobb's Barn Farm",52.333923,-1.950638,,,
2000G323261,wocgatgw,"By-pass Island",52.331676,-1.948072,,,
2000G323262,wocgatja,"By-pass Island",52.331406,-1.948234,,,
2000G323263,wocgatjd,"Garage",52.325451,-1.941594,,,
2000G323264,wocgjpgd,"Abbey Stadium",52.317142,-1.941956,,,
2000G323281,wocgjpmg,"Auxerre Avenue",52.291615,-1.917711,,,
2000G323323,wocgadwj,"De Wych Rd",52.291435,-2.113795,,,
2000G323324,wocgadwm,"St Richard's Road",52.289989,-2.112398,,,
2000G323325,wocgadwp,"Stoke Lane",52.290760,-2.104279,,,
2000G323326,wocgadwt,"Stoke Lane",52.290627,-2.104571,,,
2000G323328,wocgagad,"Shaw Lane Shelter",52.301670,-2.086692,,,
2000G323329,wocgagag,"Shops",52.302383,-2.085227,,,
2000G323330,wocgagaj,"Church",52.306396,-2.077198,,,
2000G323331,wocgagam,"Orchard Crescent",52.304558,-2.082210,,,
2000G323377,wocdjwmt,"Astwood Lane",52.289883,-2.089234,,,
2000G323936,wocgtdgp,"Windmill Avenue",52.395943,-2.019860,,,
2000G323999,wocdpdtp,"The Crown Inn",52.293018,-2.114136,,,
2000G353933,wocdpdwa,"Gibb Lane School",52.363255,-2.057985,,,
2000G500935,wocgjatj,"Webbs",52.301991,-2.103088,,,
2000G500936,wocgjatm,"Webbs",52.301838,-2.102941,,,
2000G500937,wocgjatp,"Transmitting Station",52.297760,-2.108181,,,
2000G500938,wocgjatw,"Transmitting Station",52.297878,-2.108416,,,
2000G500941,wocgjawa,"Walkmill Drive",52.289478,-2.118393,,,
2000G500944,wocgjawj,"Chateau Impney",52.277714,-2.134631,,,
2000G500948,wocgtpaj,"Walkmill Drive",52.291233,-2.116785,,,
2000G501725,wocgdgwt,"School Lane",52.352272,-2.047195,,,
2000G501732,wocgdjag,"Littleheath Lane",52.350449,-2.041923,,,
2000G501733,wocgdjaj,"Cottage Farm",52.347286,-2.034727,,,
2000G501735,wocgdjap,"First School",52.351158,-2.047047,,,
2000G501736,wocdmdjd,"Grosvenor Gardens",52.350006,-2.047780,,,
2000G501737,wocdmdjg,"Upland Road",52.345158,-2.050755,,,
2000G501738,wocdajpj,"Oakland Grove",52.342434,-2.051456,,,
2000G501739,wocdajpm,"Oakland Grove",52.342731,-2.051515,,,
2000G501740,wocdajpt,"All Saints Road",52.341103,-2.053216,,,
2000G501748,wocdajpw,"Windsor Street",52.333790,-2.060353,,,
2000G501750,wocdajta,"Sunnymead",52.332138,-2.057856,,,
2000G501751,wocdajtd,"Sunnymead",52.332058,-2.057284,,,
2000G501754,wocdajtg,"Wellington Road",52.329399,-2.052335,,,
2000G501755,wocdajtj,"Wellington Road",52.328857,-2.051806,,,
2000G501756,wocdajtm,"Clive Road",52.327042,-2.050264,,,
2000G501757,wocdajtp,"Rigby Lane",52.325371,-2.049587,,,
2000G501758,wocdajtw,"Rigby Lane",52.324726,-2.049014,,,
2000G501760,wocdajwa,"Rugby Club",52.325851,-2.041209,,,
2000G501761,wocdajwd,"Rugby Club",52.326004,-2.040798,,,
2000G501762,wocdajwg,"Walnut Lane",52.327976,-2.036354,,,
2000G501764,wocdajwj,"Stoke Road",52.323048,-2.056040,,,
2000G501765,wocdajwm,"Stoke Road",52.322853,-2.055042,,,
2000G501766,wocdajwp,"Sherwood Road",52.321873,-2.057712,,,
2000G501767,wocdajwt,"Sherwood Road",52.321728,-2.057550,,,
2000G501768,wocdamad,"Newton Works",52.320675,-2.056683,,,
2000G501769,wocdamag,"Newton Works",52.320442,-2.056595,,,
2000G501770,wocdamaj,"Sugarbrook Road",52.318542,-2.059336,,,
2000G501772,wocdamam,"Aston Road",52.317768,-2.062342,,,
2000G501773,wocdamap,"Aston Road",52.317600,-2.062268,,,
2000G501795,wocdapam,"Duke of York",52.341995,-2.066310,,,
2000G501796,wocdapap,"Broad Street",52.343544,-2.065123,,,
2000G501797,wocdapat,"Broad Street",52.343731,-2.065270,,,
2000G501798,wocdapaw,"Middleton Road",52.345493,-2.063013,,,
2000G501800,wocdapdg,"King George Close",52.344387,-2.069029,,,
2000G501808,wocdapdt,"Barnsley Hall",52.350979,-2.063167,,,
2000G501813,wocdapga,"Meadow Road",52.362839,-2.060437,,,
2000G501814,wocdapgd,"Meadow Road",52.362740,-2.060848,,,
2000G501816,wocdapgm,"Montgomery Close",52.366985,-2.057799,,,
2000G501817,wocdapgp,"Alexander Close",52.366768,-2.056154,,,
2000G501818,wocdapgt,"Alexander Close",52.366516,-2.056021,,,
2000G501820,wocdapgw,"Montgomery Close",52.367199,-2.058254,,,
2000G501821,wocdapja,"Aintree Close",52.364601,-2.054873,,,
2000G501822,wocdapjd,"Ash Drive",52.363766,-2.053698,,,
2000G501823,wocdapjg,"Ash Drive",52.364128,-2.052729,,,
2000G501827,wocdamjg,"Marlbrook Lane",52.366383,-2.035680,,,
2000G501828,wocdamjm,"Marlbrook Lane",52.366356,-2.034593,,,
2000G501829,wocdamjp,"Lickey Rock",52.366714,-2.031817,,,
2000G501830,wocdamjt,"Lickey Rock",52.366974,-2.031289,,,
2000G501831,wocdamjw,"Braces Lane",52.365364,-2.039409,,,
2000G501832,wocdampa,"Braces Lane",52.364887,-2.039717,,,
2000G501833,wocdampd,"Old Birmingham Road",52.362457,-2.042888,,,
2000G501834,wocdampg,"Staple Flat",52.359203,-2.044383,,,
2000G501835,wocdampj,"Old Birmingham Road",52.362053,-2.042917,,,
2000G501836,wocdampm,"Staple Flat",52.359634,-2.043972,,,
2000G501837,wocdampt,"Old Birmingham Road",52.356758,-2.044968,,,
2000G501838,wocdampw,"Old Birmingham Road",52.356838,-2.045203,,,
2000G501898,wocgdjmd,"Barnsley Hall",52.350925,-2.063270,,,
2000G502281,wocgmpgd,"Hodge Hill Nurseries",52.394535,-2.210716,,,
2000G502282,wocgmpgj,"Bruce Road",52.392303,-2.226400,,,
2000G502289,wocgmpjg,"Bruce Road",52.392658,-2.225020,,,
2000G502290,wocgmpjm,"Hurcot Lane",52.393829,-2.218472,,,
2000G502291,wocgjtmp,"Hodge Hill Nurseries",52.394814,-2.210908,,,
2000G502330,wocgjtwg,"Villiers Street",52.386501,-2.233819,,,
2000G502332,wocgmgtp,"Linden Avenue",52.391392,-2.233067,,,
2000G502337,wocgmjpt,"Broadwaters Drive",52.399784,-2.235991,,,
2000G502342,wocgmjtg,"Broadwaters Drive",52.399124,-2.236635,,,
2000G502702,wocdgjad,"Queen Street",52.268250,-2.145651,,,
2000G502785,wocgmamw,"Burcot Grange",52.345573,-2.020090,,,
2000G502787,wocgtmwt,"Linthurst Newtown",52.350521,-2.004191,,,
2000G502788,wocgtmtp,"Linthurst Newtown",52.349991,-2.004734,,,
2000G502790,wocgmapg,"Tanglewood Close",52.349396,-2.008919,,,
2000G502792,wocgmapm,"Linthurst Rise",52.350555,-2.001093,,,
2000G502793,wocgmapt,"Linthurst Rise",52.350574,-2.000829,,,
2000G502794,wocgmapw,"Blackwell Road",52.356857,-1.995792,,,
2000G502795,wocgptam,"Sandhills Lane",52.359303,-1.991108,,,
2000G502796,wocgmata,"Sandhills Road",52.360355,-1.990491,,,
2000G502798,wocgmatd,"Poplar Drive",52.362782,-1.989609,,,
2000G502799,wocdjawj,"Fiery Hill Road",52.365021,-1.991062,,,
2000G502803,wocdjawt,"Lickey Square",52.370647,-2.011580,,,
2000G502804,wocdjdad,"Rose and Crown",52.379818,-2.008775,,,
2000G502805,wocdjdag,"Rose Hill",52.381084,-2.004883,,,
2000G502806,wocdjdaj,"Rose Hill",52.380970,-2.004368,,,
2000G502818,wocgmtap,"Lea End Lane",52.376709,-1.958596,,,
2000G502821,wocgmtaw,"Pestilence Lane",52.366417,-1.959428,,,
2000G502822,wocgmtda,"Pestilence Lane",52.365978,-1.959664,,,
2000G502831,wocdadgm,"Cobbs Barn Farm- Redditch Road",52.333988,-1.951166,,,
2000G502839,wocdadgp,"Lion Wood",52.343288,-1.875282,,,
2000G502843,wocdadja,"Ipsley Street",52.304386,-1.938380,,,
2000G502850,wocdadjm,"Abbey Stadium",52.317028,-1.942279,,,
2000G502854,wocdadjp,"Shawhurst Lane",52.386433,-1.884682,,,
2000G502861,wocdadjt,"Highters Heath Lane",52.401222,-1.883850,,,
2000G502867,wocdadjw,"May Lane",52.390839,-1.875736,,,
2000G502888,wocdwajt,"Washford Mill",52.284069,-1.900178,,,
2000G502889,wocdwajw,"Washford Mill",52.283966,-1.899547,,,
2000G502890,wocdwama,"Pipers Road",52.284050,-1.903212,,,
2000G502899,wocdwamj,"Lion Wood",52.342995,-1.877117,,,
2000G502912,wocgtwmg,"Kings Arms",52.304974,-1.932190,,,
2000G502918,wocdtwtp,"St. Bede's School",52.303238,-1.927925,,,
2000G502919,wocdtwtw,"Kings Arms",52.305046,-1.931750,,,
2000G502920,wocdwada,"Trafford Park",52.304951,-1.935021,,,
2000G502921,wocdwadg,"Station Way Top",52.303532,-1.942106,,,
2000G502922,wocdwadj,"Trafford Park",52.304653,-1.937720,,,
2000G502923,wocdwadm,"Station Way Top",52.303604,-1.941725,,,
2000G502967,wocdwadw,"May Lane",52.390694,-1.876839,,,
2000G503069,wocdtpdg,"Hagley Wood Lane",52.434532,-2.090028,,,
2000G503072,wocdtpdp,"Hagley Golf Course",52.432304,-2.098907,,,
2000G503073,wocdtpdt,"Hagley Road",52.428013,-2.122575,,,
2000G503074,wocdtpdw,"School Lane",52.427383,-2.123868,,,
2000G503076,wocgpmwj,"Wassell Grove Road",52.430443,-2.110492,,,
2000G503077,wocgpjda,"Wassell Grove Road",52.429867,-2.112712,,,
2000G503078,wocdtpga,"Newfield Road",52.415630,-2.147933,,,
2000G503079,wocgdgjt,"Pinewoods Avenue",52.414253,-2.150545,,,
2000G503080,wocgdgjw,"Thicknall Lane",52.413116,-2.153335,,,
2000G503081,wocgdgma,"Kidderminster Road South",52.412460,-2.154582,,,
2000G503082,wocgdgmd,"Broome Lane",52.411053,-2.158458,,,
2000G503084,wocgdgmg,"Station Drive",52.405426,-2.175637,,,
2000G503087,wocgdgmj,"Halfshire Lane",52.401566,-2.183514,,,
2000G503088,wocgdgmp,"Halfshire Lane",52.401730,-2.183559,,,
2000G503089,wocgdgmt,"New Wood Lane",52.398735,-2.188735,,,
2000G503090,wocgdgmw,"Park Hall",52.397057,-2.199235,,,
2000G503091,wocgdgpa,"Park Hall",52.396622,-2.199792,,,
2000G503104,wocgdgpd,"Kidderminster Railway Station",52.385033,-2.240085,,,
2000G503105,wocgdgpg,"Lorne Street",52.384686,-2.236793,,,
2000G503112,wocgdgpm,"Hinton Fields",52.357235,-2.063778,,,
2000G503113,wocdwjwm,"War Memorial",52.360344,-2.064957,,,
2000G503115,wocgpgpg,"Plough and Harrow",52.364948,-2.065257,,,
2000G503118,wocgpgpt,"Plough and Harrow",52.364140,-2.064507,,,
2000G503119,wocdwmag,"Horsepool Farm",52.421700,-2.053945,,,
2000G503120,wocdwmaj,"Hollies Farm",52.423309,-2.053344,,,
2000G503121,wocdwmam,"Redhill Place",52.427372,-2.052834,,,
2000G503122,wocdwmap,"Redhill Place",52.427544,-2.052496,,,
2000G503124,wocdwmat,"Bibby Lane",52.435135,-2.048019,,,
2000G503125,wocdwmaw,"Illey Turn",52.439621,-2.043802,,,
2000G503126,wocdwmda,"Illey Turn",52.440010,-2.043905,,,
2000G503127,wocdwmdg,"The Hedgerows",52.416859,-2.061908,,,
2000G503129,wocdjpmw,"The Bell and Cross",52.407677,-2.114493,,,
2000G503130,wocdjpta,"The Bell and Cross",52.407803,-2.114861,,,
2000G503131,wocdatjd,"Mearse Lane",52.387539,-2.083774,,,
2000G503132,wocdatjg,"Stourbridge Road",52.383900,-2.079609,,,
2000G503133,wocdatjm,"Stourbridge Road",52.384258,-2.079610,,,
2000G503134,wocdatjp,"Spring Pools",52.382023,-2.039129,,,
2000G503135,wocdatjt,"Spring Pools",52.381737,-2.039026,,,
2000G503136,wocdatjw,"Lydiate Ash Road",52.375549,-2.044779,,,
2000G503137,wocdatma,"Lydiate Ash Road",52.375431,-2.045073,,,
2000G503139,wocdatmd,"Woodrow Lane",52.372223,-2.045070,,,
2000G503140,wocdatmg,"Marlbrook Hotel",52.365883,-2.046988,,,
2000G503919,wocgjmjp,"Horsepool Farm",52.421513,-2.053724,,,
2000G503920,wocgjmjt,"Hollies Farm",52.424198,-2.052816,,,
2000G503924,wocgjmjw,"Bibby Lane",52.434963,-2.048078,,,
2000G503927,wocgjmpa,"The Hedgerows",52.417004,-2.062129,,,
2000G516904,wocdpwtj,"Groveley Hall",52.386913,-1.958983,,,
2000G52777A,wocdtgjg,"School",52.353367,-2.047343,,,
2000G52781A,wocdtgjp,"Village Hall",52.343090,-2.029600,,,
2000G52782A,wocdtgjt,"Village Hall",52.343010,-2.029688,,,
2000G52783A,wocdtgjw,"Alcester Road near Greenhill",52.342793,-2.026459,,,
2000G52786A,wocdtgma,"Green Hill",52.347633,-2.017227,,,
2000G52786B,wocgmtdp,"Green Hill",52.347282,-2.017668,,,
2000G52835A,wocgmtgp,"Holt Hill",52.323780,-1.891358,,,
2000G52836A,wocgmtgt,"Bransons Cross Roundabout",52.331699,-1.872511,,,
2000G52847A,wocgmtgw,"Barkers Lane",52.364880,-1.889084,,,
2000G52848A,wocgmtja,"Hill Lane",52.368877,-1.887782,,,
2000G52850A,wocdjpgw,"Wythall Island",52.374889,-1.885006,,,
2000G52851A,wocdjpja,"Brick Kiln Lane",52.378593,-1.884820,,,
2000G52851B,wocdjpjd,"Brick Kiln Lane",52.378235,-1.884938,,,
2000G52852A,wocdjpjg,"Silver Street",52.383053,-1.884235,,,
2000G52855A,wocdjpjm,"Shawhurst Lane",52.385983,-1.884140,,,
2000G52857A,wocdjpjp,"Pack Horse Inn",52.391727,-1.884419,,,
2000G52858A,wocdjpjt,"Dark Lane",52.395943,-1.881968,,,
2000G52858B,wocdjpjw,"Dark Lane",52.395836,-1.881880,,,
2000G52860A,wocdjpma,"Highters Heath Lane",52.400665,-1.883705,,,
2000G52866A,wocdjpmp,"Falstaff Avenue",52.388325,-1.879667,,,
2000G52869A,wocgjmta,"Alder Close",52.388405,-1.869748,,,
2000G52874A,wocgjmtj,"The Spinney",52.378254,-1.869308,,,
2000G52875A,wocgjmtm,"Gorsey Lane",52.375633,-1.874662,,,
2000G52876A,wocgjmtp,"Gorsey Lane",52.375912,-1.874500,,,
2000G52877A,wocgjmtw,"School Drive",52.374023,-1.880190,,,
2000G52878A,wocgjmwa,"School Drive",52.373951,-1.881409,,,
2000G52879B,wocgjmwg,"The Spinney",52.378792,-1.868248,,,
2000G581601,wocgmwja,"The French Hen",52.415161,-2.120614,,,
2000G583516,wocgtjpw,"Hurcott Road Crossroads",52.394482,-2.235037,,,
2000G591733,wocgdtpw,"Cottage Farm",52.347298,-2.034976,,,
2000G591737,wocgawpd,"Upland Road",52.345421,-2.050931,,,
2000G592451,wocgpdmp,"Green Street",52.384983,-2.245345,,,
2000G592733,wocgawpj,"Fiery Hill Road",52.365101,-1.990798,,,
2000G592785,wocgawpt,"Burcot Grange",52.345474,-2.020016,,,
2000G592804,wocgawpw,"Rose and Crown",52.379963,-2.008335,,,
2000G592890,wocgawtd,"Pipers Road",52.284077,-1.902684,,,
2000G593082,wocgawtg,"Broome Lane",52.410683,-2.158927,,,
2000G593089,wocgawtj,"New Wood Lane",52.399178,-2.188325,,,
2000G593105,wocgpdmw,"Lorne Street",52.384525,-2.236792,,,
2000G612333,wocgjwpj,"Regents Park Road",52.332775,-2.042609,,,
2000G612335,wocgjwpt,"Dagnell End Road",52.323849,-1.937443,,,
2000G621003,wocgmadt,"Galton's Lane",52.393208,-2.101552,,,
2000G621004,wocgmadw,"Yew Tree Avenue",52.399376,-2.117073,,,
2000G621005,wocdwjtd,"The French Hen",52.415249,-2.121026,,,
2000G621006,wocdwjtg,"Haybridge High School",52.423653,-2.147739,,,
2000G621007,wocdwjtj,"Hagley Primary School",52.422550,-2.137089,,,
2000G621010,wocdwjtw,"Dark Lane",52.416264,-2.064378,,,
2000G621011,wocdwjwa,"Hillcrest Road",52.414730,-2.061435,,,
2000G621012,wocdwjwd,"Poplar Lane",52.413631,-2.060301,,,
2000G621016,wocgmtjm,"Car Sales",52.438137,-2.044874,,,
2000G621017,wocwtwpw,"War Memorial",52.423191,-2.133121,,,
2000G621018,wocgptat,"Station Road",52.422302,-2.141514,,,
2000G621019,wocgpjpa,"Bell Inn",52.392002,-2.089661,,,
2000G621020,wocgpjpd,"Bell Inn",52.391823,-2.088559,,,
2000G621096,wocgmtjp,"Car Sales",52.437950,-2.044712,,,
2000G622003,wocgmtmg,"Shaw Lane Shelter",52.300926,-2.086485,,,
2000G622004,wocgmtmj,"Orchard Crescent",52.304558,-2.082885,,,
2000G623001,wocgmtmw,"Cofton Church Lane",52.369904,-1.993999,,,
2000G623007,wocdgdmp,"Hinton Fields",52.357506,-2.063749,,,
2000G623009,wocdgdmw,"Pleck Stores",52.339405,-2.067612,,,
2000G623010,wocdgdpa,"Stratford Road",52.335484,-2.053502,,,
2000G623013,wocdgdpj,"Fordhouse Road",52.330673,-2.054876,,,
2000G623016,wocgjtag,"Walnut Lane",52.328560,-2.034490,,,
2000G623017,wocgjtaj,"Cofton Church Lane",52.370010,-1.993720,,,
2000G623018,wocgjtam,"Woodshill Avenue",52.371105,-2.015442,,,
2000G623020,wocgjtat,"Clive Road",52.326649,-2.050263,,,
2000G623021,wocgpwtj,"Railway Bridges",52.297409,-2.085202,,,
2000G623022,wocgtaga,"Railway Bridges",52.297859,-2.085174,,,
2000G623050,wocgtpjd,"Kendal Drive",52.368114,-1.992897,,,
2000G623051,wocgtmwj,"Kendal Drive",52.368034,-1.993162,,,
2000G623910,wocgpdmt,"Stratford Road",52.335365,-2.053634,,,
2000G624004,wocgjtdj,"Beoley First School",52.323898,-1.894776,,,
2000G626006,wocdmgdp,"Fords Road",52.393860,-1.852083,,,
2000G631005,wocdmgmd,"Baptist Church",52.308994,-1.937464,,,
2000G631006,wocdmgmg,"Gibbs Road",52.313648,-1.926793,,,
2000G661007,wocdpjtd,"De Wych Rd",52.291561,-2.113912,,,
2000G700302,wocgpdma,"Redditch Bus Station",52.305862,-1.944831,0,200G003001,B
2000G700303,wocgpdjw,"Redditch Bus Station",52.305729,-1.944773,0,200G003001,C
2000G700306,wocgpdjm,"Redditch Bus Station",52.305305,-1.944700,0,200G003001,F
2000G714676,wocdwatm,"North of Studley Road Island",52.284687,-1.910775,,,
2000G800091,wocgjptj,"Old Alcester Road",52.347797,-1.880495,,,
2000G800092,wocgjptm,"Slip Road",52.346024,-1.876668,,,
2000G800901,wocgjptw,"Prince of Wales",52.430489,-2.128833,,,
2000G800903,wocgjpwa,"Hartle Farm",52.390541,-2.107468,,,
2000G800904,wocgjpwd,"Hartle Farm",52.390709,-2.107557,,,
2000G800907,wocgjpwm,"Lickey Square",52.371952,-2.016794,,,
2000G800908,wocgjpwp,"Lickey Square",52.371574,-2.017734,,,
2000G800909,wocgjpwt,"Lickey Grange Drive",52.368435,-2.026369,,,
2000G800910,wocdmdjm,"Lickey Grange Drive",52.368198,-2.026619,,,
2000G500939,wocgtptp,"Webbs Grounds",52.302971,-2.102914,,,
2000G038704,wocgtjtw,"Woodgate Way",52.390900,-2.115258,,,
2000G621024,wocgtjwg,"Dark Lane",52.394295,-2.117735,,,
2000G038705,wocgtpag,"Woodgate Way",52.391171,-2.115640,,,
2000G093301,wocgtpwa,"Church Hill",52.420975,-2.013080,,,
2000G621028,wocgtmpg,"Yew Tree Avenue",52.400124,-2.116545,,,
2000G621029,wocgtmta,"Pool Furlong",52.403442,-2.115393,,,
2000G621030,wocgtmpm,"Pool Furlong",52.403660,-2.115070,,,
2000G621031,wocgtmwa,"Galton's Lane",52.392982,-2.101817,,,
2000G025904,wocgtwad,"Blythesway",52.353203,-1.968734,,,
2000G621000,wocgtwaw,"Dark Lane",52.416302,-2.064025,,,
2000G621032,wocgtwtg,"Hillcrest Road",52.414440,-2.061449,,,
2000G501763,wocgwamd,"Sugarbrook Road",52.318348,-2.059423,,,
2000G528601,wocgwamg,"New Road",52.399456,-1.882723,,,
2000G528602,wocgwama,"New Road",52.399738,-1.882678,,,
2000G210028,wocgwapm,"Dark Lane",52.394520,-2.117398,,,
2000G621035,wocgwapd,"Woodfield Lane",52.395771,-2.071372,,,
2000G621036,wocgwamp,"Woodfield Lane",52.395889,-2.071078,,,
2000G502800,wocgwawm,"Elliot Gardens",52.383217,-2.002136,,,
2000G010006,wocdgtjw,"Bromsgrove Railway Station",52.320885,-2.049582,,,
2000G010007,wocdtpgm,"Bromsgrove Railway Station",52.321022,-2.049436,,,
2000G015308,wocgtgaj,"Redditch Gateway",52.310921,-1.880198,,,
2000G015309,wocgtgdj,"Redditch Gateway",52.310707,-1.880492,,,
260003732,leidtdam,"M&S",52.599167,-1.179166,,,
260004300,leidtgtm,"Beggars Lane",52.619183,-1.230741,,,
260004301,leidtgtp,"Hinckley Road",52.621326,-1.227115,,,
260004302,leidtgtw,"Warren Lane",52.622623,-1.225053,,,
260004303,leidtgwa,"Warren Lane",52.622612,-1.224477,,,
260004304,leidtgwd,"Red Cow",52.624115,-1.220625,,,
260004305,leidtgwg,"Red Cow",52.624569,-1.219834,,,
260004306,leiajgtd,"Kings Drive",52.624954,-1.215676,,,
260004307,leiajgta,"Kings Drive",52.624928,-1.214066,,,
260004308,leiajgpt,"Grange Avenue",52.625294,-1.211194,,,
260004309,leiajgpw,"Grange Avenue",52.625492,-1.211087,,,
260004310,leiajgpg,"Walsingham Crescent",52.625980,-1.205213,,,
260004311,leiajgpd,"Braunstone Crossroads",52.626465,-1.203698,,,
260004312,leiadmgj,"Braunstone Crossroads",52.626583,-1.202425,,,
260004316,leimampa,"Hinckley Road",52.621399,-1.227350,,,
260004400,leidtgwp,"Thurlaston Turn",52.601784,-1.274380,,,
260004401,leidtgwt,"Thurlaston Turn",52.601894,-1.274541,,,
260004402,leidtjad,"Kennels",52.611160,-1.258246,,,
260004403,leidtjag,"Kennels",52.611160,-1.258438,,,
260004404,leimatpa,"Bulls Head",52.609150,-1.262075,,,
260004405,leimatpj,"Bulls Head",52.609375,-1.261835,,,
260005100,leidtmpw,"Desford Crossroads",52.612846,-1.255072,,,
260005101,leidtmta,"Desford Crossroads",52.612503,-1.256141,,,
260010200,leijadaw,"Brookfield Road",52.533833,-1.374657,,,
260010201,leijadga,"Sketchley Hill House",52.530231,-1.371716,,,
260010202,leijadgd,"Aldridge Road",52.528065,-1.370081,,,
260010203,leijadgj,"Sketchley Lane",52.526386,-1.368911,,,
260010205,leijadgp,"Sketchley Lane",52.526360,-1.369059,,,
260010206,leijadgt,"Brookfield Road",52.533428,-1.374884,,,
260010232,leijadtj,"Elm Tree Drive",52.538940,-1.354341,,,
260010233,leijadtm,"Sapcote Road",52.537163,-1.351581,,,
260010234,leijadtp,"Sapcote Road",52.536873,-1.351290,,,
260010235,leijadtw,"Elm Tree Drive",52.538612,-1.354036,,,
260010240,leijadwm,"Costcutter",52.536957,-1.347072,,,
260010241,leijadwp,"Winchester Drive",52.536530,-1.341579,,,
260010242,leijadwt,"Aston Flamville Road",52.536827,-1.338302,,,
260010243,leijagad,"Winchester Drive",52.536327,-1.341936,,,
260010244,leijagag,"Costcutter",52.536766,-1.346677,,,
260010262,leijagjt,"Three Pots Road",52.521118,-1.365508,,,
260010287,leimampw,"Pennant Road",52.524834,-1.369316,,,
260010318,leijagtw,"Harrowbrook Road",52.534725,-1.406562,,,
260010319,leijagwa,"Maple Drive",52.535454,-1.402852,,,
260010320,leijagwd,"Nutts Lane",52.535698,-1.396067,,,
260010321,leijagwg,"Beaumont Avenue",52.535603,-1.391749,,,
260010322,leijagwj,"King George's Way",52.536568,-1.388757,,,
260010324,leijagwp,"Brandon Road",52.538185,-1.381982,,,
260010325,leijagwt,"Granville Road",52.539066,-1.379891,,,
260010326,leijajad,"Granville Road",52.538841,-1.380218,,,
260010327,leijajag,"Brandon Road",52.537971,-1.382368,,,
260010328,leijajaj,"Rosemary Way",52.537502,-1.385530,,,
260010329,leijajam,"King George's Way",52.535961,-1.389798,,,
260010330,leijajap,"Beaumont Avenue",52.535492,-1.393092,,,
260010332,leijajaw,"Maple Drive",52.535080,-1.403683,,,
260010333,leijajda,"Harrowbrook Road",52.534481,-1.408055,,,
260010341,leijajgd,"Springfield Road",52.536968,-1.372593,,,
260010343,leijajgm,"Parsons Lane",52.540497,-1.358284,,,
260010344,leijajgp,"Parsons Lane",52.540424,-1.358433,,,
260010348,leijajmd,"Well Lane",52.545410,-1.372709,,,
260010349,leijajmg,"Well Lane",52.545143,-1.372771,,,
260010350,leijajmj,"Atkins Building",52.543098,-1.373803,,,
260010359,leijajpt,"St Mary's Road",52.539055,-1.372755,,,
260010360,leijajpw,"St Mary's Road",52.538902,-1.372919,,,
260010361,leijajta,"The Crescent Bus Station",52.539143,-1.375422,0,260GCC16101,
260010362,leijajtd,"The Crescent Bus Station",52.538948,-1.374747,0,260GCC16101,
260010364,leijajtj,"The Crescent Bus Station",52.539349,-1.374004,0,260GCC16101,
260010367,leijajwa,"Dodwells Road",52.535110,-1.414916,,,
260010368,leijajwd,"Dodwells Road",52.535202,-1.415593,,,
260010378,leijamap,"Broadsword Way",52.523930,-1.368445,,,
260010379,leijamat,"London Road",52.540340,-1.359496,,,
260010384,leijamdm,"Caravan Park",52.540173,-1.321280,,,
260010385,leijamdp,"Caravan Park",52.540451,-1.324048,,,
260010389,leijamgd,"Chesterfield Way",52.569843,-1.333954,,,
260010390,leijamgj,"Atkins Building",52.543194,-1.373625,,,
260010421,leimawtj,"Thornfield Way",52.537331,-1.364774,,,
260010600,leijampa,"Keats Lane",52.579163,-1.310024,,,
260010601,leijampd,"Almeys Lane",52.576694,-1.310874,,,
260010602,leijampg,"Almeys Lane",52.577053,-1.310721,,,
260010603,leijampj,"Keats Lane",52.578453,-1.309991,,,
260010604,leijampm,"Library",52.575619,-1.316322,,,
260010605,leijampt,"Mountfield Road",52.575466,-1.319069,,,
260010606,leijampw,"Mountfield Road",52.575611,-1.319096,,,
260010607,leijamta,"New Street",52.574104,-1.323044,,,
260010608,leijamtd,"Belle Vue Road",52.570950,-1.329497,,,
260010609,leijamtg,"Belle Vue Road",52.570656,-1.330298,,,
260010610,leijamtj,"Field Way",52.572559,-1.326786,,,
260010611,leijamtm,"New Street",52.574505,-1.322551,,,
260010628,leijapda,"Field Way",52.572739,-1.326238,,,
260010661,leimatpm,"Clickers Way",52.588650,-1.295601,,,
260010662,leimatpt,"Clickers Way",52.588200,-1.296568,,,
260010900,leijatdg,"Ashby Road",52.563595,-1.360190,,,
260010901,leijatdj,"St Marys Avenue",52.563049,-1.354150,,,
260010902,leijatdm,"Ashby Road",52.563797,-1.361073,,,
260010903,leijatdp,"Church Lane",52.565418,-1.348494,,,
260010904,leijatdt,"The Square",52.567726,-1.346085,,,
260010905,leijatdw,"Church Lane",52.565121,-1.348484,,,
260010906,leijatga,"Hill Street",52.568062,-1.341816,,,
260010907,leijatgd,"Chesterfield Way",52.569962,-1.334484,,,
260010908,leijatgj,"The Cedars",52.569519,-1.336054,,,
260010909,leijatgm,"Hill Street",52.568020,-1.340961,,,
260010913,leijatja,"The Cedars",52.569309,-1.336899,,,
260010936,leijatwg,"The Square",52.567703,-1.345569,,,
260010937,leijatwj,"St Marys Avenue",52.563015,-1.353191,,,
260010949,leijawdg,"Barwell House Farm",52.564682,-1.365471,,,
260010950,leijawdj,"Community Hospital",52.561642,-1.366606,,,
260010951,leijawdm,"Ashby Grange",52.558384,-1.365798,,,
260010952,leijawdp,"Hangmans Lane",52.555851,-1.364934,,,
260010953,leijawdt,"Sunnyside",52.553078,-1.365269,,,
260010954,leijawdw,"Barrie Road",52.550194,-1.367420,,,
260010955,leijawga,"Factory Road",52.548367,-1.368744,,,
260010956,leijawgd,"Factory Road",52.548080,-1.369205,,,
260010957,leijawgj,"Barrie Road",52.551296,-1.366829,,,
260010958,leijawgm,"Sunnyside",52.552673,-1.365762,,,
260010959,leijawgp,"Hangmans Lane",52.555683,-1.365069,,,
260010960,leijawgt,"Ashby Grange",52.558708,-1.365896,,,
260010961,leijawgw,"Community Hospital",52.561607,-1.366784,,,
260014243,leijgjmp,"Aldridge Road",52.528687,-1.370735,,,
260070078,leijwdmp,"Marchant Road",52.539459,-1.377585,,,
260070079,leijwdmt,"Marchant Road",52.539658,-1.377538,,,
260070081,leijwdpa,"Whitworth Avenue",52.535618,-1.398044,,,
260070129,leijwgjp,"Springfield Road",52.536751,-1.372330,,,
260070130,leijwgjt,"Thornfield Road",52.536613,-1.366612,,,
260070143,leijwgpm,"Three Pots Road",52.520832,-1.365660,,,
260070173,leijwjdw,"Pennant Road",52.524830,-1.369081,,,
260070176,leijwjgj,"Crownhill Road",52.523441,-1.367980,,,
269030004,lecdapwt,"St Peter's Lane",52.637814,-1.134953,,,
269030084,lecdgpjd,"St Margaret's Bus Station",52.639748,-1.133836,0,269GLC30614,SN
269030090,lecdgpma,"St Margaret's Bus Station",52.639881,-1.133523,0,269GLC30614,SU
269030112,lecdpmwa,"St Peter's Lane",52.637592,-1.135179,,,
269030116,lecdpmwm,"Causeway Lane",52.637596,-1.137248,,,
269034018,lecdjwpd,"Welford Place",52.630890,-1.133597,,,
269034022,lecdjwpt,"Nelson Mandela Park",52.625893,-1.132174,,,
269034040,lecdgdtp,"Walnut Street",52.625122,-1.133770,,,
269034043,lecdgdwd,"Bonners Lane",52.629829,-1.135878,,,
269034056,lecdjwgt,"Burnmoor Street",52.624695,-1.138254,,,
269034057,lecdjwgw,"Windermere Street",52.625248,-1.141538,,,
269034058,lecdjwja,"Windermere Street",52.625328,-1.141182,,,
269034060,lecdjwjg,"Walnut Street",52.624630,-1.135567,,,
269034104,lecdjtjt,"St Nicholas Circle",52.634800,-1.140805,,,
269034106A,lecdpmtw,"Town Hall Square",52.633862,-1.133051,,,
269034110,lecdptdj,"St Nicholas Circle",52.634747,-1.139446,,,
269045000,lecdapgj,"Braunstone Leisure Centre",52.631615,-1.178589,,,
269045001,lecdapgm,"Braunstone Way",52.630959,-1.187526,,,
269045002,lecdjgtd,"Avery Hill",52.628975,-1.194403,,,
269045003,lecdjgtg,"Wyatt Close",52.628067,-1.197419,,,
269045004,lecdjgtj,"Golf Course Lane",52.628925,-1.194981,,,
269045005,lecdjgtm,"Avery Hill",52.629498,-1.193404,,,
269045006,lecdjgtp,"Braunstone Way",52.630829,-1.189760,,,
269045007,lecdjgtw,"Braunstone Leisure Centre",52.631920,-1.178111,,,
269045059,lecdptaw,"Wyatt Close",52.627560,-1.199497,,,
269046004,lecdgmwt,"Rowley Fields Avenue",52.614468,-1.163962,,,
269046006,lecdmjdm,"Jaguar Garage",52.613949,-1.165154,,,
269050003,lecdajtm,"Kate Street",52.634216,-1.149431,,,
269050004,lecdajtp,"Tudor Road",52.634022,-1.147277,,,
269050005,lecdajtw,"West Bridge",52.633842,-1.142759,,,
269055000,lecdgtpt,"West Bridge",52.633541,-1.143016,,,
269055001,lecdgtpw,"Tudor Road",52.633774,-1.147770,,,
269055002,lecdgtwa,"Mostyn Street",52.632874,-1.160214,,,
269056000,lecdjdtj,"Frampton Avenue",52.632652,-1.163174,,,
269056001,lecdjdtm,"Dovelands School",52.632576,-1.165450,,,
269056002,lecdjdtp,"Sunnycroft Road",52.632885,-1.168503,,,
269056003,lecdjdtw,"Western Park",52.633209,-1.172501,,,
269056004,lecdjdwa,"Western Park",52.633354,-1.170977,,,
269056005,lecdjdwd,"Sunnycroft Road",52.632900,-1.168015,,,
269056006,lecdjdwg,"Dovelands School",52.632736,-1.163807,,,
269056007,lecdjdwj,"Mostyn Street",52.633121,-1.160121,,,
269057030,lecdgjpw,"Rutland Street",52.633812,-1.129535,,,
3500B006900,shradatd,"St Mary's Church",52.667210,-2.376667,,,
3500B006901,shradatg,"St Mary's Church",52.667110,-2.376874,,,
3500B006902,shrdjma,"Jaspers Bar",52.666553,-2.374044,,,
3500B006903,shrdgjmd,"Jaspers Bar",52.666508,-2.374458,,,
3500B029100,shradpgm,"Oldbury Wells School",52.530651,-2.427681,,,
3500B055300,shragdtm,"Wheel Inn",52.553967,-2.350239,,,
3500B055301,shragjtj,"Wheel Inn",52.553707,-2.350252,,,
3500B099000,shrajmjp,"Swancote Farm",52.543957,-2.380875,,,
3500B099001,shrajmjt,"Swancote Farm",52.543739,-2.381330,,,
3500B126301,shramdwd,"Woodberry Down PH",52.539650,-2.431027,,,
3500B126302,shramdmt,"Oak Gardens",52.540165,-2.432064,,,
3500B132000,shramjgt,"Seniors Club",52.670456,-2.371327,,,
3500B132001,shramgwt,"Seniors Club",52.670292,-2.371444,,,
3500B132002,shramjad,"Barn Road Jct",52.670437,-2.368355,,,
3500B132003,shramjag,"Barn Road Jct",52.670303,-2.368649,,,
3500B132004,shramjaj,"Aston Road Jct",52.668781,-2.366137,,,
3500B132005,shramjam,"Aston Road Jct",52.668449,-2.366149,,,
3500B136500,shramjtj,"Severn Valley Railway",52.532394,-2.421152,,,
3500B218700,shratdjd,"The Wheatsheaf",52.668938,-2.373118,,,
3500B218701,shratdjg,"The Wheatsheaf",52.668095,-2.372919,,,
3500B219700,shratdjt,"Long Lane Jct",52.651424,-2.294744,,,
3500B219701,shratdjw,"Long Lane Jct",52.651272,-2.294935,,,
3500B219702,shratdma,"Garage",52.647903,-2.292399,,,
3500B219703,shratdmd,"Garage",52.648010,-2.293065,,,
3500B220000,shratdmg,"Fire Station",52.639637,-2.288221,,,
3500B220001,shratdmj,"Fire Station",52.639679,-2.288605,,,
3500B220200,shratdmp,"Shrewsbury Arms",52.636681,-2.282926,,,
3500B220201,shratdmt,"Shrewsbury Arms",52.636101,-2.281711,,,
3500B220202,shratdmw,"Crown Inn",52.634789,-2.277979,,,
3500B220203,shratdpa,"Crown Inn",52.634636,-2.277992,,,
3500B220204,shratdpd,"Meadow Road Jct",52.634045,-2.272610,,,
3500B220205,shratdpg,"Meadow Road Jct",52.633900,-2.272713,,,
3500B220600,shratdpj,"The Cedars",52.633228,-2.264153,,,
3500B220601,shratdpm,"The Cedars",52.633022,-2.264108,,,
3500B220800,shratdpt,"Crossroads",52.625748,-2.247887,,,
3500B220801,shratdpw,"Crossroads",52.625576,-2.247946,,,
3500B227900,shratgta,"New Road Jct",52.533062,-2.419655,,,
3500B228000,shratgtd,"Riverside Wines",52.532921,-2.417325,,,
3500B228001,shratgtg,"Riverside Wines",52.533020,-2.417134,,,
3500B239100,shratjtp,"Cann Hall Drive Jct",52.534306,-2.412016,,,
3500B239200,shratjtw,"Severn Street Jct",52.533001,-2.411605,,,
3500B239201,shratjwa,"Pale Meadow Rd Jct",52.531902,-2.411993,,,
3500B239400,shratjwd,"No. 5",52.530560,-2.411184,,,
3500B239401,shratjwg,"No. 5",52.530460,-2.411287,,,
3500B239402,shratjwj,"Aldi",52.529087,-2.405451,,,
3500B239403,shratjwm,"Aldi",52.529148,-2.405924,,,
3500B239404,,"Lodge Lane Jct",52.530300,-2.408322,,,
3500B240400,shratmap,"Hawthorns Jct",52.533772,-2.422920,,,
3500B240504,shratwtj,"Northgate Car Park",52.539078,-2.422189,,,
3500B240900,shratpdj,"No. 82",52.541370,-2.434715,,,
3500B240901,shratwjg,"No. 60",52.539936,-2.435497,,,
3500B240902,shratwjm,"Racecourse Drive Jct",52.539093,-2.435091,,,
3500B240903,shratwjp,"Post Office",52.539291,-2.432527,,,
3500B243700,shratwpg,"Sandpit Lane Jct",52.555710,-2.331595,,,
3500B243701,shratwpj,"Sandpit Lane Jct",52.555439,-2.331681,,,
3500B245400,shratmgt,"Pub",52.555305,-2.294024,,,
3500B249600,shratpgt,"Fosters Arms PH",52.534424,-2.414051,,,
3500B249601,shratpgw,"Falcon Hotel",52.534035,-2.414298,,,
3500B264001,shrawawg,"Harp Inn",52.536022,-2.419860,,,
3500B287700,shrawjda,"Royal Oak Inn",52.558533,-2.304386,,,
3500B287701,shrawjdg,"Royal Oak Inn",52.558361,-2.304724,,,
3500B287702,shrawjdj,"Crossroads",52.558830,-2.294564,,,
3500B287703,shrawjdm,"Crossroads",52.558662,-2.295935,,,
3500B407900,shrdadap,"The Hobbins Ent",52.534580,-2.391673,,,
3500B407901,shrdadat,"The Hobbins Ent",52.534142,-2.391345,,,
3500B463900,shrdgptj,"Estate Road Jct",52.531429,-2.387282,,,
3500B463901,shrdgptm,"Estate Road Jct",52.531502,-2.386988,,,
3500B464300,shrdgpwg,"Faraday Drive Jct",52.528255,-2.400889,,,
3500B464301,shrdgpwj,"Faraday Drive Jct",52.528130,-2.400726,,,
3500B464500,shrdgpwt,"Roughton Jct",52.547504,-2.367589,,,
3500B464501,shrdgtad,"Roughton Jct",52.547405,-2.367426,,,
3500B466501,shrdjmj,"Sainsbury's",52.537315,-2.422364,,,
3500B467700,,"Lamledge Lane Jct",52.667126,-2.361229,,,
3500B467701,,"Lamledge Lane Jct",52.666935,-2.361405,,,
3590E039900,teladpwa,"Magna Foods",52.676903,-2.424318,,,
3590E040000,teladpwd,"Magna Foods",52.676651,-2.424064,,,
3590E040100,telagmwd,"Business Development Centre",52.675476,-2.418048,,,
3590E040200,telagmwg,"Business Development Centre",52.675438,-2.418905,,,
3590E040300,teladtag,"Kwik Fit",52.674553,-2.415081,,,
3590E040400,teladtad,"Kwik Fit",52.674248,-2.415196,,,
3590E040500,teladpwg,"Naird Roundabout",52.672142,-2.415102,,,
3590E040600,teladpwj,"Naird Roundabout",52.671856,-2.415366,,,
3590E100600,telagjpa,"Telford Services",52.677025,-2.401955,,,
3590E100601,telagjmw,"Telford Services",52.677094,-2.402562,,,
3590E101500,telamjgt,"Fire Station",52.676189,-2.425376,,,
3590E101501,telamjgw,"Fire Station",52.675793,-2.425830,,,
3590E101502,telamjma,"Bookers",52.674648,-2.425952,,,
3590E101503,telamjmp,"Bookers",52.674351,-2.426319,,,
3590E101504,telamjmg,"Randlay Interchange",52.670921,-2.424984,,,
3590E101505,telamjmj,"Randlay Interchange",52.670712,-2.425500,,,
3590E106000,telagatm,"Bus Station",52.675407,-2.447553,0,359GTELFRDC,L
3590E107100,telamadt,"International Centre",52.673580,-2.442757,,,
3590E107400,telamagd,"International Centre",52.673454,-2.442874,,,
3800C200300,,"Banbury Road",52.686970,-2.046166,,,
3800C200301,,"Banbury Road",52.686924,-2.046018,,,
3800C200400,stadjdgt,"Wellington Drive",52.682457,-2.048054,,,
3800C200401,,"Wellington Drive",52.682537,-2.048055,,,
3800C200601,,"Sainsburys Store",52.674587,-2.017831,,,
3800C200801,stadjdjm,"Bus Station",52.690613,-2.031391,0,380G200800,1
3800C200807,stadjdmg,"Bus Station",52.690796,-2.030977,0,380G200800,7
3800C200808,stadjdmj,"Bus Station",52.690811,-2.030740,0,380G200800,8
3800C203400,stagtapj,"Norton Canes Business Park",52.667458,-1.975212,,,
3800C203401,stagtapm,"Norton Canes Business Park",52.667198,-1.975005,,,
3800C203700,stadjgdp,"Butts Lane",52.668423,-1.980712,,,
3800C203701,stadjgdt,"Butts Lane",52.668304,-1.980875,,,
3800C208801,stadjmgp,"Asda Store",52.686378,-2.031047,,,
3800C208802,stadjmgt,"Asda Store",52.686714,-2.030825,,,
3800C209001,,"Cley Road",52.673611,-2.008750,,,
3800C209002,,"Cley Road",52.673367,-2.008454,,,
3800C211301,stagtawd,"Repton Close",52.683437,-2.045985,,,
3800C211302,,"Repton Close",52.683418,-2.045837,,,
3800C211401,stadjmwm,"Lock Keepers Close",52.668922,-1.974176,,,
3800C211402,stagtawg,"Lock Keepers Close",52.669033,-1.973984,,,
3800C211701,,"Longford Primary Academy",52.684273,-2.041326,,,
3800C211702,,"Longford Primary Academy",52.684364,-2.041282,,,
3800C212001,stagtawj,"Park Road",52.671879,-1.966780,,,
3800C212101,stagtawm,"Yew Tree Close",52.671917,-1.971956,,,
3800C212102,stagtawp,"Yew Tree Close",52.671852,-1.972562,,,
3800C212301,stagtawt,"Wolverhampton Road",52.683601,-2.039698,,,
3800C212302,,"Wolverhampton Road",52.683590,-2.039891,,,
3800C212502,,"Norton East Road",52.671036,-1.965701,,,
3800C213601,stadjpgp,"Red Lion Lane",52.667717,-1.961164,,,
3800C213602,stadjpgt,"Red Lion Lane",52.668362,-1.961740,,,
3800C214801,stadjpmp,"Willow Road",52.665043,-1.957795,,,
3800C214802,stadjpmt,"Willow Road",52.664890,-1.957366,,,
3800C216701,stagtdat,"The Brambles",52.671680,-1.969087,,,
3800C216702,stagtdaw,"The Brambles",52.671791,-1.969102,,,
3800C219001,stagpwdt,"Wolverhampton Road",52.682774,-2.038839,,,
3800C219601,stagtdgd,"Oaks Drive",52.686161,-2.043502,,,
3800C219602,stagtdgj,"Oaks Drive",52.685783,-2.043162,,,
3800C219901,stagtdgm,"Lakeside Boulevard",52.673218,-2.034083,,,
3800C221102,,"McArthurGlen Retail Outlet",52.690491,-2.013134,,,
3800C221103,,"McArthurGlen Retail Outlet",52.690483,-2.013267,,,
3800C222201,,"Wallace Close",52.670200,-1.973835,,,
3800C222300,,"Kingswood Crescent",52.672440,-1.999877,,,
3800C222301,,"Kingswood Crescent",52.672344,-1.999995,,,
3800C222501,,"Eastern Way",52.677429,-2.018024,,,
3800C222502,,"Eastern Way",52.677132,-2.018024,,,
3800C240300,stadmdpt,"Bus Garage",52.677975,-2.033924,,,
3800C240301,stadmdpw,"Bus Garage",52.677795,-2.034013,,,
3800C240501,stadmdta,"Mill Farm PH",52.686741,-2.018517,,,
3800C240502,stadmdtd,"Mill Farm PH",52.686562,-2.019331,,,
3800C240601,stadmdtg,"Hollies Park Road",52.688370,-2.023800,,,
3800C240602,stadmdtj,"Hollies Park Road",52.688774,-2.023815,,,
3800C241001,stadmdwa,"Hazlemere Grove",52.685593,-2.048635,,,
3800C241002,stagtdjp,"Hazlemere Grove",52.685448,-2.048605,,,
3800C241101,stadmdwd,"Berwick Drive",52.684513,-2.046326,,,
3800C241102,stadmdwg,"Berwick Drive",52.684425,-2.046178,,,
3800C241201,stagtdjt,"Carlisle Road",52.683804,-2.044654,,,
3800C241202,stadmdwj,"Whitby Way",52.683590,-2.043810,,,
3800C241301,stadmdwm,"Mosswood Street",52.681408,-2.036649,,,
3800C241302,stadmdwp,"Mosswood Street",52.681553,-2.037078,,,
3800C241401,stadmdwt,"Laburnum Avenue",52.679043,-2.033082,,,
3800C241402,stagtdjw,"Laburnum Avenue",52.679253,-2.033644,,,
3800C290300,stadmgtd,"Wellington Drive",52.680153,-2.047948,,,
3800C290301,stadmgtg,"Wellington Drive",52.679928,-2.048022,,,
3800C290901,stadmgtw,"Watling Street",52.674503,-2.032576,,,
3800C290902,stadmgwa,"Watling Street",52.674343,-2.032546,,,
3800C291001,stadmgwd,"Vine Lane",52.672176,-2.035724,,,
3800C291002,stadmgwg,"Vine Lane",52.672039,-2.035694,,,
3800C295801,,"Rosefinch Drive",52.666130,-1.986613,,,
3800C401200,stadmjpw,"Atherstone Street",52.615227,-1.699023,,,
3800C401201,stadmjta,"The Square",52.614834,-1.700267,,,
3800C402000,stadmjtg,"Hudson Drive",52.677780,-1.905823,,,
3800C402001,stadmjtj,"Hudson Drive",52.677780,-1.906193,,,
3800C402701,,"Bridge Cross Road",52.679447,-1.921528,,,
3800C402702,stagtdpd,"Bridge Cross Road",52.679482,-1.921365,,,
3800C403901,stadmpda,"Bus Station",52.681545,-1.825170,0,380G403900,1
3800C403905,stadmpdp,"Bus Station",52.681572,-1.825303,0,380G403900,5
3800C403907,stadmpdw,"Bus Station",52.681293,-1.825571,0,380G403900,7
3800C403908,stadmpga,"Bus Station",52.681152,-1.825704,0,380G403900,8
3800C404001,stadmpgd,"Hospital Road",52.666393,-1.921152,,,
3800C404002,stagtdpj,"Hospital Road",52.666340,-1.921300,,,
3800C404100,stadmpgj,"Swan Road",52.680927,-1.831518,,,
3800C404101,stadmpgm,"Swan Road",52.680771,-1.831519,,,
3800C404600,stadmpjm,"Fosseway Lane",52.671597,-1.861752,,,
3800C404601,stadmpjp,"Fosseway Lane",52.671398,-1.862196,,,
3800C404800,stadmpmd,"Churchill Road",52.638668,-1.834947,,,
3800C404801,stadmpmg,"Churchill Road",52.637051,-1.834465,,,
3800C404900,stadmpmj,"Royal Oak PH",52.630630,-1.899070,,,
3800C404901,stadmpmp,"Royal Oak PH",52.632256,-1.896879,,,
3800C405301,,"The Butts",52.656357,-1.858415,,,
3800C406201,stadmpwm,"Affleck Avenue",52.619427,-1.724710,,,
3800C406202,stadmpwp,"Affleck Avenue",52.619370,-1.723913,,,
3800C406400,,"The Friary School",52.694324,-1.848394,,,
3800C407501,stadmtda,"Holiday Inn",52.652748,-1.834479,,,
3800C407502,stadmtdg,"Holiday Inn",52.651741,-1.834321,,,
3800C407701,stadmtdj,"Co-op Store",52.668690,-1.831639,,,
3800C407702,stadmtdm,"Co-op Store",52.666595,-1.831706,,,
3800C407801,stadmtdp,"Shortbutts Lane",52.672215,-1.832129,,,
3800C407802,stadmtdt,"Shortbutts Lane",52.672447,-1.831876,,,
3800C407901,stadmtdw,"Friary Avenue",52.676762,-1.830499,,,
3800C407902,stadmtga,"Friary Avenue",52.677021,-1.830084,,,
3800C408901,stadmtmg,"Old Library",52.681965,-1.829636,,,
3800C408902,stadmtmj,"Old Library",52.681751,-1.829651,,,
3800C409201,stadmtpm,"No. 50",52.679634,-1.839170,,,
3800C409202,stadmtpt,"No. 50",52.679714,-1.839244,,,
3800C409301,stadmtpw,"Wallheath Crescent",52.634590,-1.890210,,,
3800C409302,stadmtwa,"Wallheath Crescent",52.634228,-1.890033,,,
3800C409401,stadmtwd,"Sorrel Close",52.677094,-1.849651,,,
3800C409402,stadmtwg,"Sorrel Close",52.677040,-1.849400,,,
3800C409801,stadmtwt,"Broad Lane",52.673088,-1.869941,,,
3800C409802,stagtdta,"Broad Lane",52.672974,-1.869926,,,
3800C409901,stagtdtd,"Edial Farm",52.674984,-1.874653,,,
3800C409902,stadmwad,"Edial Farm",52.675381,-1.875835,,,
3800C410001,stadmwag,"Woodhouses Road",52.675850,-1.880004,,,
3800C410002,stadmwam,"Woodhouses Road",52.675770,-1.880360,,,
3800C410101,stadmwaj,"Pipehill Farm",52.668411,-1.866331,,,
3800C410102,stadmwap,"Pipehill Farm",52.669918,-1.864124,,,
3800C410401,stadmwat,"Hall Lane",52.656765,-1.880678,,,
3800C410402,stagtdtg,"Hall Lane",52.656803,-1.880914,,,
3800C410601,stadmwdg,"Frog Lane",52.680687,-1.827674,,,
3800C410602,stadmwdj,"Frog Lane",52.680695,-1.827836,,,
3800C411201,stadmwgj,"Morrisons",52.688324,-1.838562,,,
3800C411202,stadmwgm,"Morrisons",52.688580,-1.839641,,,
3800C412101,stadmwjm,"Kean Close",52.692120,-1.847440,,,
3800C412102,stadmwjp,"Kean Close",52.692032,-1.847544,,,
3800C412301,stadmwjt,"Anson Avenue",52.686863,-1.834869,,,
3800C412302,stadmwjw,"Anson Avenue",52.686684,-1.834869,,,
3800C412401,stadmwma,"Beacon Park",52.684269,-1.832319,,,
3800C412402,stadmwmd,"Beacon Park",52.684162,-1.832009,,,
3800C412701,stadmwmj,"Lyn Avenue",52.691093,-1.846304,,,
3800C412702,stadmwmp,"Lyn Avenue",52.690960,-1.845876,,,
3800C414401,stadmwtp,"Abnalls Lane",52.689686,-1.842566,,,
3800C414402,stadmwtw,"Abnalls Lane",52.689678,-1.843143,,,
3800C415201,stadpadw,"Davey Close",52.668358,-1.928764,,,
3800C415202,stadpaga,"Davey Close",52.668545,-1.930450,,,
3800C415901,stadpagj,"Queen Street",52.669827,-1.934056,,,
3800C415902,stadpagm,"Queen Street",52.670025,-1.934263,,,
3800C416901,stadpamj,"Clock Tower",52.679905,-1.833667,,,
3800C417301,stadpapa,"Henley Close",52.673824,-1.918033,,,
3800C417302,stadpapd,"Henley Close",52.673691,-1.918787,,,
3800C417401,stadpapg,"New Road",52.674866,-1.912707,,,
3800C417402,stadpapj,"New Road",52.674908,-1.912928,,,
3800C417501,stadpapm,"Lodge Farm",52.621258,-1.837316,,,
3800C417502,stadpapt,"Lodge Farm",52.621376,-1.837449,,,
3800C417601,stadpapw,"Dobbies Garden Centre",52.643837,-1.834764,,,
3800C417602,stadpata,"Dobbies Garden Centre",52.643585,-1.834573,,,
3800C418501,stadpawa,"Oakdene Road",52.680538,-1.925963,,,
3800C418601,stadpawd,"Morley Road",52.680065,-1.921941,,,
3800C418602,,"Springhill Road",52.679966,-1.921912,,,
3800C419001,stadpawt,"Mease Avenue",52.676392,-1.902365,,,
3800C419002,stadpdag,"Mease Avenue",52.676277,-1.901626,,,
3800C419101,stagtdwa,"Farewell Lane",52.675301,-1.896748,,,
3800C419102,stagtdwd,"Farewell Lane",52.675102,-1.896748,,,
3800C419201,stagtdwg,"Edial House Farm",52.675171,-1.892001,,,
3800C419202,stagpjma,"Edial House Farm",52.675270,-1.891616,,,
3800C419701,stadpdap,"Ashcroft Lane",52.640236,-1.848876,,,
3800C419901,,"Mill Lane",52.636997,-1.881530,,,
3800C419902,stadpdat,"Mill Lane",52.637070,-1.881648,,,
3800C420201,stadpdgd,"Forge Lane",52.602730,-1.865867,,,
3800C420202,stadpdgj,"Forge Lane",52.602589,-1.866207,,,
3800C420301,stadpdgm,"Little Aston Lane",52.602123,-1.862680,,,
3800C420302,stadpdgp,"Little Aston Lane",52.602108,-1.862384,,,
3800C420401,stadpdgt,"Woodside Drive",52.600327,-1.861017,,,
3800C420402,stadpdgw,"Woodside Drive",52.600155,-1.861106,,,
3800C420601,stadpdja,"Blake Street",52.607460,-1.837928,,,
3800C420602,,"Blake Street",52.607571,-1.838076,,,
3800C420701,stadpdjd,"Smarts Avenue",52.610374,-1.837726,,,
3800C420702,stadpdjg,"Smarts Avenue",52.610249,-1.837579,,,
3800C420801,stadpdjm,"Footherley Lane",52.614887,-1.838802,,,
3800C420802,stadpdjp,"Footherley Lane",52.615299,-1.838520,,,
3800C420901,stadpdjt,"Derry Court",52.619579,-1.838002,,,
3800C420902,stadpdjw,"Derry Court",52.618771,-1.838271,,,
3800C421101,stadpdmd,"Shenstone Lodge School",52.624390,-1.838147,,,
3800C421102,stadpdmg,"Shenstone Lodge School",52.624577,-1.837984,,,
3800C421201,stadpdmj,"Court Drive",52.630466,-1.837415,,,
3800C421202,stadpdmp,"Court Drive",52.630421,-1.837283,,,
3800C421301,stadpdmt,"St Johns Hill",52.634274,-1.835732,,,
3800C421302,stadpdmw,"St Johns Hill",52.633762,-1.836650,,,
3800C421501,stadpdpg,"Mill Lane",52.641239,-1.834774,,,
3800C421502,stadpdpj,"Mill Lane",52.641006,-1.834938,,,
3800C421601,stadpdpm,"Wall Turn",52.656326,-1.834362,,,
3800C421602,stadpdpt,"Wall Turn",52.656082,-1.834127,,,
3800C421701,stadpdpw,"Keepers Cottage",52.663082,-1.833420,,,
3800C421702,stadpdta,"Keepers Cottage",52.662579,-1.833452,,,
3800C422001,stadpdtp,"Brewster Close",52.618130,-1.717053,,,
3800C422002,stadpdtw,"Brewster Close",52.617958,-1.716803,,,
3800C422301,stagtdwm,"Oak Drive",52.620064,-1.728547,,,
3800C422302,stagtdwp,"Oak Drive",52.620296,-1.728678,,,
3800C422501,stadpdwp,"Lakeside Business Park",52.617119,-1.711845,,,
3800C422502,stadpdwt,"Lakeside Business Park",52.616947,-1.711492,,,
3800C423601,stadpgag,"Methodist Church",52.587738,-1.869145,,,
3800C423602,stadpgaj,"Methodist Church",52.587505,-1.869795,,,
3800C424101,stadpgat,"Burnett Road",52.585533,-1.872148,,,
3800C424102,stadpgaw,"Burnett Road",52.585190,-1.872267,,,
3800C424201,stadpgda,"Little Aston Hall Drive",52.603313,-1.872643,,,
3800C424301,stadpgdg,"no. 118",52.602165,-1.882657,,,
3800C424302,stadpgdj,"no. 118",52.602066,-1.882820,,,
3800C424401,stadpgdm,"Fotherley Brook Road",52.602619,-1.888266,,,
3800C424402,stadpgdp,"Fotherley Brook Road",52.602566,-1.889123,,,
3800C425301,stadpgmg,"Maxtock Avenue",52.675266,-1.833211,,,
3800C425302,stadpgmj,"Maxtock Avenue",52.675301,-1.833448,,,
3800C425401,stagtgag,"Swan Corner Shopping Centre",52.677467,-1.907673,,,
3800C425402,stadpgmp,"Swan Corner Shopping Centre",52.677322,-1.907658,,,
3800C425701,stadpgmw,"Deykin Road",52.673626,-1.837329,,,
3800C425702,stadpgpa,"Deykin Road",52.673328,-1.837626,,,
3800C426501,stadpgtd,"Willow Avenue",52.676189,-1.908430,,,
3800C426502,,"Willow Avenue",52.676300,-1.908444,,,
3800C427201,,"Water Works",52.665035,-1.871827,,,
3800C427202,stadpgwj,"Water Works",52.664581,-1.872539,,,
3800C427401,stadpgwt,"Watling Street",52.654324,-1.884557,,,
3800C427402,stadpjad,"Watling Street",52.654022,-1.885696,,,
3800C427601,stadpjag,"Pouk Lane",52.648273,-1.894595,,,
3800C427602,stadpjaj,"Pouk Lane",52.649414,-1.893099,,,
3800C427701,stadpjap,"Whitacre Lane",52.646221,-1.898354,,,
3800C427801,stadpjam,"Barracks Lane",52.643616,-1.903754,,,
3800C427802,stadpjat,"Barracks Lane",52.644436,-1.902807,,,
3800C428001,stadpjdg,"Lower Sandford Street",52.683292,-1.832219,,,
3800C428002,stadpjdj,"Lower Sandford Street",52.683212,-1.832560,,,
3800C428201,stadpjdm,"Lazy Hill",52.627892,-1.901721,,,
3800C428202,,"Lazy Hill",52.627876,-1.901617,,,
3800C428301,stadpjdp,"Church Lane",52.632450,-1.892653,,,
3800C428302,stadpjdt,"Church Lane",52.632702,-1.893170,,,
3800C428401,stadpjdw,"Mill Lane",52.603310,-1.877294,,,
3800C428402,,"Mill Lane",52.603382,-1.877471,,,
3800C428501,stadpjga,"No. 129",52.667599,-1.925290,,,
3800C428801,stadpjgj,"Fallow Road",52.616249,-1.707745,,,
3800C428802,stadpjgm,"Broomfield Avenue",52.615845,-1.705045,,,
3800C428803,stagpwmp,"Broomfield Avenue",52.615681,-1.704677,,,
3800C430801,stadpjtw,"Walsall Road",52.673092,-1.862102,,,
3800C430802,stagtgam,"Walsall Road",52.673092,-1.862472,,,
3800C431901,stadpmaj,"Brook End",52.614151,-1.696254,,,
3800C431902,stadpmam,"Brook End",52.614220,-1.695707,,,
3800C432401,stadpmda,"Royal Oak Close",52.675365,-1.854242,,,
3800C432402,stadpmdg,"Royal Oak Close",52.675140,-1.854376,,,
3800C432601,stadpmdm,"Christchurch Lane",52.677986,-1.845699,,,
3800C432602,stadpmdp,"Christchurch Lane",52.678265,-1.845018,,,
3800C432701,stadpmdt,"Angorfa Close",52.678677,-1.842960,,,
3800C432702,stadpmdw,"Angorfa Close",52.678944,-1.842338,,,
3800C436201,stagtgdm,"Grange Lane",52.672142,-1.866172,,,
3800C436202,stagtgdp,"Grange Lane",52.672375,-1.866985,,,
3800C436601,stagtgja,"Leafenden Avenue",52.675510,-1.923827,,,
3800C436602,stagpwdm,"Leafenden Avenue",52.675220,-1.924139,,,
3800C436701,stagptaj,"Grange Road",52.673973,-1.921967,,,
3800C436702,stagptam,"Grange Road",52.673916,-1.922174,,,
3800C436801,stagpwmt,"French Avenue",52.619648,-1.731370,,,
3800C436802,stagpwmw,"French Avenue",52.619595,-1.731149,,,
3800C436901,stagpwpj,"George Avenue",52.617836,-1.734114,,,
3800C436902,stagpwpm,"George Avenue",52.617470,-1.734382,,,
3800C437001,stagpwpt,"Gainsborough Drive",52.614624,-1.740189,,,
3800C437002,stagpwpw,"Gainsborough Drive",52.613609,-1.741199,,,
3800C437601,stagpwta,"Bassetts Pole PH",52.591667,-1.781612,,,
3800C437602,stagpwtd,"Bassetts Pole PH",52.592251,-1.781388,,,
3800C438001,stagtgma,"Agincourt Road",52.670887,-1.839055,,,
3800C438002,stagtgmd,"Agincourt Road",52.670902,-1.839454,,,
3800C438101,stagtgmg,"The Whytmore",52.672756,-1.839462,,,
3800C438102,,"The Whytmore",52.672901,-1.839299,,,
3800C490300,stadptdm,"Mary Slater Road",52.677071,-1.832509,,,
3800C490301,stadptdp,"Mary Slater Road",52.677078,-1.832820,,,
3800C492501,stadptja,"Union Street",52.672989,-1.934155,,,
3800C492502,stadptjd,"Union Street",52.673096,-1.934021,,,
3800C492601,stadptjg,"Care Home",52.676422,-1.934061,,,
3800C492602,stadptjm,"Care Home",52.675892,-1.933943,,,
3800C492701,stadptjp,"High Street",52.679939,-1.933020,,,
3800C492702,stadptjt,"High Street",52.680065,-1.933271,,,
3800C494401,,"Mossbank Avenue",52.678135,-1.922329,,,
3800C494402,stagptwp,"Mossbank Avenue",52.677685,-1.922492,,,
3800C494502,stadptwp,"Chase Terrace Academy",52.680473,-1.924706,,,
3800C494601,stadptwt,"Chase Vale",52.678780,-1.933865,,,
3800C494602,stagtgmj,"Chase Vale",52.678841,-1.933998,,,
3800C494701,,"King Street",52.669212,-1.933362,,,
3800C494702,,"King Street",52.669106,-1.933421,,,
3800C495201,,"Holm View Close",52.639668,-1.843056,,,
3800C495202,,"Holm View Close",52.639694,-1.841888,,,
3800C495401,,"Anna Seward School",52.668751,-1.834892,,,
3800C495402,,"Anna Seward School",52.668865,-1.834641,,,
3800C4E0011,,"Deer Park Road",52.617512,-1.714398,,,
3800C600000,stadwmdw,"Argos Distribution Centre",52.769596,-2.107795,,,
3800C600300,stadwmga,"Duck Lane",52.624359,-2.187548,,,
3800C600301,stadwmgd,"Duck Lane",52.624298,-2.187090,,,
3800C600800,stadwmgm,"Furnace Grange Road",52.572510,-2.221308,,,
3800C600801,stadwmgp,"Shop Lane",52.570999,-2.225918,,,
3800C601002,,"East Road",52.650002,-2.106050,,,
3800C601100,stadwmgt,"Post Office",52.676792,-2.173279,,,
3800C601101,,"Swan Hotel",52.676716,-2.173930,,,
3800C601200,stadwmgw,"South Staffordshire Council Offices",52.625908,-2.191159,,,
3800C601201,stadwmja,"South Staffordshire Council Offices",52.626247,-2.191353,,,
3800C601301,,"East Road",52.652573,-2.106145,,,
3800C601302,,"East Road",52.652679,-2.106220,,,
3800C601500,,"Cross Guns Inn PH",52.643024,-2.226704,,,
3800C601501,stadwmjm,"Cross Guns Inn PH",52.643410,-2.227430,,,
3800C601600,stadwmjp,"Brewood Road",52.654289,-2.129995,,,
3800C601601,stadwmjt,"Brewood Road",52.654129,-2.130349,,,
3800C601700,,"Church Lane",52.656776,-2.133580,,,
3800C601701,stadwmjw,"Church Lane",52.656956,-2.133684,,,
3800C601800,stadwmpa,"Post Office",52.658581,-2.135256,,,
3800C601801,stadwmpd,"Post Office",52.658707,-2.135330,,,
3800C601900,stadwmpg,"School Lane",52.759663,-2.108764,,,
3800C601901,stadwmpj,"School Lane",52.759525,-2.108438,,,
3800C602200,,"Blundies Lane",52.478992,-2.258619,,,
3800C602201,,"Blundies Lane",52.479118,-2.258561,,,
3800C602400,stadwmpm,"Hill Street",52.627953,-2.058912,,,
3800C602401,stadwmpt,"Hill Street",52.627712,-2.058646,,,
3800C602800,stadwmtd,"New Street",52.625851,-2.060919,,,
3800C602801,stadwmtg,"New Street",52.625706,-2.060786,,,
3800C602901,stadwmtj,"Broad Lane",52.639442,-2.043219,,,
3800C602902,stadwmtm,"Broad Lane",52.639397,-2.043603,,,
3800C603200,stadwmtp,"Sanderling Close",52.645325,-2.094053,,,
3800C603201,stadwmtw,"Sanderling Close",52.645721,-2.093019,,,
3800C603400,stagtjdp,"Brinsford Prison",52.651131,-2.109601,,,
3800C603501,stadwmwa,"New Road",52.651356,-2.106394,,,
3800C604000,stadwmwd,"Spread Eagle PH",52.694214,-2.131342,,,
3800C604001,stadwmwg,"Spread Eagle PH",52.692162,-2.131365,,,
3800C604100,stadwmwj,"Holy Cross Church",52.512093,-2.283288,,,
3800C604101,,"Holy Cross Church",52.512020,-2.283229,,,
3800C604801,stadwmwt,"Wolgarston High School",52.723083,-2.099670,,,
3800C604802,,"Wolgarston High School",52.723118,-2.099137,,,
3800C604900,stadwpad,"Norton Lane",52.665302,-2.013953,,,
3800C604901,stadwpag,"Norton Lane",52.665142,-2.013583,,,
3800C605100,stadwpap,"Halfpenny Green Lane",52.523712,-2.261270,,,
3800C605101,,"Halfpenny Green Lane",52.523712,-2.261358,,,
3800C605600,,"The Bradford Arms PH",52.694298,-2.246176,,,
3800C605601,,"The Bradford Arms PH",52.694183,-2.246042,,,
3800C606401,,"The Fox Inn",52.561943,-2.258960,,,
3800C606500,,"Chester Road",52.461624,-2.240634,,,
3800C606501,,"Chester Road",52.461597,-2.240384,,,
3800C606600,stadwpdw,"White Harte PH",52.448074,-2.228657,,,
3800C606800,,"Meddins Lane",52.454086,-2.235075,,,
3800C606801,,"Meddins Lane",52.454121,-2.234854,,,
3800C606900,,"Plough and Harrow PH",52.449429,-2.229532,,,
3800C607001,,"Chandler Avenue",52.454609,-2.237388,,,
3800C607400,stadwpgp,"Shops",52.589123,-2.264227,,,
3800C607401,stadwpgt,"Shops",52.589451,-2.263373,,,
3800C607600,stadwpja,"Bungham Lane",52.719326,-2.117679,,,
3800C607601,stadwpjd,"Bungham Lane",52.718689,-2.117722,,,
3800C608000,stadwpjw,"Mayfield Avenue",52.720783,-2.117283,,,
3800C608100,stadwpma,"Francis Close",52.719044,-2.103836,,,
3800C608101,stadwpmd,"Francis Close",52.719086,-2.104013,,,
3800C608200,stadwpmg,"Rydal Drive",52.593311,-2.195461,,,
3800C608201,,"Rydal Drive",52.593456,-2.195506,,,
3800C608300,stadwpmj,"Sainsbury's Store",52.596188,-2.202265,,,
3800C608400,stadwpmp,"Severn Drive",52.592339,-2.203310,,,
3800C608401,,"Severn Drive",52.592365,-2.203871,,,
3800C608600,stadwpmt,"Church Road",52.652809,-2.079094,,,
3800C608601,stadwpmw,"Church Road",52.652962,-2.078488,,,
3800C608700,,"Swan Lane",52.655197,-2.083534,,,
3800C609100,,"Bridgnorth Road",52.461777,-2.203766,,,
3800C609200,stadwpta,"Manor Drive",52.514244,-2.202550,,,
3800C609201,stadwptd,"Manor Drive",52.514629,-2.202758,,,
3800C609600,stadwptg,"Weston Drive",52.651176,-2.025833,,,
3800C609601,stadwptj,"Somerford Close",52.652409,-2.025065,,,
3800C609700,stadwptm,"The Meadows",52.672817,-2.050972,,,
3800C609701,,"The Meadows",52.672585,-2.050972,,,
3800C609900,stadwptp,"Coach & Horses PH",52.710716,-2.222201,,,
3800C609901,stadwptw,"Coach & Horses PH",52.710445,-2.222629,,,
3800C610100,stadwpwa,"Waterdale",52.526798,-2.204362,,,
3800C610101,stadwpwd,"Waterdale",52.527035,-2.204157,,,
3800C610200,stadwpwg,"St. Benedict's Church",52.536011,-2.183543,,,
3800C610301,stadwpwm,"Appledore Close",52.661976,-2.011587,,,
3800C610302,,"Appledore Close",52.662212,-2.011498,,,
3800C610400,stadwpwp,"Windsor Road",52.533241,-2.196239,,,
3800C610401,stadwpwt,"Windsor Road",52.533386,-2.195252,,,
3800C610500,stadwtad,"Colliers Arms PH",52.660149,-2.036335,,,
3800C610700,stadwtag,"Church Road",52.631042,-2.201037,,,
3800C610701,stadwtaj,"Church Road",52.631176,-2.201097,,,
3800C611400,stadwtdj,"Moat Lane",52.659470,-2.014986,,,
3800C611401,stadwtdm,"Moat Lane",52.659882,-2.014247,,,
3800C611701,stadwtga,"Holly Lane",52.648140,-2.012751,,,
3800C611800,,"Elm Tree Inn PH",52.459194,-2.238693,,,
3800C611900,stadwtgd,"White Harte PH",52.448215,-2.229158,,,
3800C612300,stadwtgj,"Dunsley Drive",52.452751,-2.218558,,,
3800C612301,stadwtgm,"Dunsley Drive",52.452576,-2.220499,,,
3800C612901,,"The Woodman Inn",52.626526,-2.180452,,,
3800C612902,stadwtgp,"The Woodman Inn",52.626247,-2.180982,,,
3800C613100,,"Maple Close",52.456070,-2.236116,,,
3800C613400,stadwtgw,"Holy Cross Church",52.627327,-2.180056,,,
3800C613401,,"Middle School",52.627281,-2.179982,,,
3800C613601,stadwtja,"South Crescent",52.643127,-2.088845,,,
3800C613602,stadwtjd,"South Crescent",52.643253,-2.089289,,,
3800C613701,stagtjdt,"Featherstone Academy",52.643421,-2.092526,,,
3800C613702,stadwtjg,"Featherstone Academy",52.643360,-2.092822,,,
3800C613802,stagtjdw,"Westbourne Avenue",52.665787,-2.027231,,,
3800C614401,stadwtmj,"Wardle's Lane",52.657185,-2.016020,,,
3800C614402,stadwtmp,"Wardle's Lane",52.657482,-2.015947,,,
3800C614501,stadwtmt,"Brookhouse Close",52.643383,-2.094817,,,
3800C614502,stagtjgd,"Brookhouse Close",52.643467,-2.094876,,,
3800C614601,stadwtmw,"Plover Close",52.643894,-2.095971,,,
3800C614801,stagpwgj,"Oak Avenue",52.654453,-2.016448,,,
3800C614802,stadwtpa,"Oak Avenue",52.654964,-2.016315,,,
3800C614901,stadwtpd,"Enterprise Park",52.650398,-2.018353,,,
3800C614902,stadwtpg,"Enterprise Park",52.650372,-2.018634,,,
3800C615001,stadwtpj,"Coppice Close",52.666809,-2.030825,,,
3800C615002,stadwtpm,"Coppice Close",52.666927,-2.030811,,,
3800C615101,stadwtpt,"New Horse Road",52.661945,-2.031280,,,
3800C615102,,"New Horse Road",52.661812,-2.031192,,,
3800C615201,stadwtpw,"Methodist Church",52.660023,-2.032964,,,
3800C615401,stadwtwg,"Whitehouse Farm",52.648239,-2.094620,,,
3800C615402,,"Whitehouse Farm",52.648346,-2.094517,,,
3800C615501,stadwtwj,"Baneberry Drive",52.647675,-2.091264,,,
3800C615502,stagtjgj,"Baneberry Drive",52.647812,-2.091131,,,
3800C615801,stagadad,"Shepwell Gardens",52.646851,-2.085557,,,
3800C615802,stagadag,"Shepwell Gardens",52.647202,-2.087051,,,
3800C616101,stagadaj,"Station Road",52.667057,-2.016881,,,
3800C616102,stagadam,"Station Road",52.666561,-2.015728,,,
3800C616201,stagadap,"Leacroft Lane",52.669716,-2.019470,,,
3800C616202,stagadat,"Leacroft Lane",52.668915,-2.019367,,,
3800C616501,stagadaw,"Low Street",52.661343,-2.031561,,,
3800C616801,stagadgp,"Cheslyn Hay Academy",52.659801,-2.043254,,,
3800C616802,stagtjgp,"Cheslyn Hay Academy",52.660973,-2.041762,,,
3800C617001,stagadja,"Monument Drive",52.647537,-2.083445,,,
3800C617002,stagadjd,"Monument Drive",52.647419,-2.083267,,,
3800C617801,,"Frederick Road",52.728222,-2.110803,,,
3800C617802,,"Frederick Road",52.728424,-2.109204,,,
3800C618301,stagadmp,"Long Lane",52.642803,-2.013266,,,
3800C618302,stagadmt,"Long Lane",52.642109,-2.012764,,,
3800C618401,stagadmw,"No. 29",52.639160,-2.011906,,,
3800C618402,stagadpa,"No. 29",52.638889,-2.011625,,,
3800C618501,stagadpd,"St Modwena Way",52.717564,-2.106749,,,
3800C618502,stagadpg,"St Modwena Way",52.717396,-2.106852,,,
3800C618601,stagadpj,"Penkridge Fire Station",52.717278,-2.114683,,,
3800C618602,stagadpm,"Penkridge Fire Station",52.717594,-2.115528,,,
3800C618901,stagadta,"St John's Road",52.627323,-2.059709,,,
3800C619201,stagadtj,"Saxon Road",52.721085,-2.102508,,,
3800C619202,stagadtm,"Saxon Road",52.721012,-2.102700,,,
3800C619801,,"Wolgarston Way",52.723392,-2.102706,,,
3800C619802,stagagag,"Wolgarston Way",52.723484,-2.102588,,,
3800C619901,stagagaj,"The Lakes",52.636787,-2.011063,,,
3800C619902,stagagam,"The Lakes",52.636238,-2.010693,,,
3800C620201,stagagap,"Moseley Road",52.631618,-2.092191,,,
3800C620202,stagagat,"Moseley Road",52.631798,-2.092265,,,
3800C620401,stagagda,"The Gables",52.630077,-2.058043,,,
3800C620402,stagagdg,"The Gables",52.630230,-2.058324,,,
3800C621000,stagagdj,"Ivetsey Bank Road",52.682907,-2.243316,,,
3800C621701,stagagdw,"Hinksford View",52.509647,-2.198359,,,
3800C621801,stagagja,"Dudley Road",52.516735,-2.174400,,,
3800C622102,stagagjt,"Billy Buns Lane",52.541706,-2.175797,,,
3800C622301,stagagjw,"The Avenue",52.642166,-2.086538,,,
3800C622401,stagagma,"Maypole Street",52.534546,-2.184672,,,
3800C622601,stagagmg,"Smallbrook Lane",52.540329,-2.177280,,,
3800C622701,stagagmj,"Meadow Lane",52.541050,-2.187708,,,
3800C622702,stagagmp,"Meadow Lane",52.541248,-2.187856,,,
3800C622801,stagagmt,"Bullmeadow Lane",52.538727,-2.188641,,,
3800C622802,stagagmw,"Bullmeadow Lane",52.538567,-2.188759,,,
3800C622901,stagagpa,"The New Inn",52.537525,-2.187471,,,
3800C622902,stagagpd,"The New Inn",52.537319,-2.187426,,,
3800C623101,stagagpj,"Landywood Lane",52.655987,-2.021091,,,
3800C623102,stagagpm,"Landywood Lane",52.655907,-2.021327,,,
3800C623301,stagagpw,"Bridgnorth Avenue",52.526127,-2.203725,,,
3800C623302,stagagta,"Bridgnorth Avenue",52.525116,-2.200758,,,
3800C623501,stagagtd,"Bridgnorth Road",52.524414,-2.196333,,,
3800C623502,stagagtj,"Bridgnorth Road",52.524612,-2.196009,,,
3800C623601,stagagtm,"Fire Station",52.530437,-2.200178,,,
3800C623602,stagajgp,"Fire Station",52.529854,-2.199851,,,
3800C623701,stagagtp,"Lindale Drive",52.531788,-2.200228,,,
3800C623702,stagagtw,"Lindale Drive",52.531651,-2.200213,,,
3800C623801,stagagwa,"Leasowe Drive",52.595654,-2.209363,,,
3800C623802,stagtjgt,"Leasowe Drive",52.595787,-2.209128,,,
3800C623901,stagagwd,"The Grange",52.535255,-2.189688,,,
3800C623902,stagagwg,"The Grange",52.535381,-2.189423,,,
3800C624001,stagagwj,"Stanham Close",52.535683,-2.186712,,,
3800C624002,stagagwm,"Stanham Close",52.535820,-2.186432,,,
3800C624101,stagagwp,"Walk Lane",52.533691,-2.185701,,,
3800C624201,stagagwt,"Redhill Avenue",52.530312,-2.189829,,,
3800C624202,stagajad,"Redhill Avenue",52.530212,-2.190285,,,
3800C624301,stagajag,"Sytch Lane",52.528374,-2.193992,,,
3800C624302,stagajaj,"Sytch Lane",52.527058,-2.194723,,,
3800C624401,stagajam,"Giggetty Lane",52.528954,-2.200053,,,
3800C624402,stagajap,"Giggetty Lane",52.528828,-2.200583,,,
3800C624701,stagajat,"Himley House Hotel",52.517902,-2.175039,,,
3800C624702,stagajaw,"Himley House Hotel",52.519581,-2.175443,,,
3800C624801,stagajda,"Himley Country Hotel",52.519199,-2.177623,,,
3800C624802,stagajdg,"Himley Country Hotel",52.519058,-2.178256,,,
3800C624901,stagajdj,"Plantation Lane",52.518894,-2.183855,,,
3800C624902,stagajdm,"Plantation Lane",52.519073,-2.183886,,,
3800C625301,stagajdp,"Holly Lane",52.649910,-2.026690,,,
3800C625401,stagajdt,"Garden Centre",52.654224,-2.055060,,,
3800C625402,stagajdw,"Garden Centre",52.654522,-2.055311,,,
3800C625601,stagajgj,"Bridgnorth Road",52.460423,-2.205423,,,
3800C625602,stagajgm,"Bridgnorth Road",52.460056,-2.205083,,,
3800C626101,stagajgw,"The Burgesses",52.446804,-2.226047,,,
3800C626102,,"The Burgesess",52.446964,-2.226180,,,
3800C626701,stagtjgw,"Middle Lane",52.619595,-2.218946,,,
3800C627101,stagtjmd,"Newgate",52.590012,-2.261841,,,
3800C627102,,"Newgate",52.590054,-2.262019,,,
3800C627201,stagtjmg,"Bridgnorth Garden Centre",52.560848,-2.265385,,,
3800C627301,stagtjmj,"Honeysuckle Drive",52.647018,-2.090804,,,
3800C627302,stagtjmp,"Honeysuckle Drive",52.647156,-2.090923,,,
3800C627400,,"Wolgarston High School",52.722626,-2.097952,,,
3800C627601,,"The Garden Village",52.567348,-2.244813,,,
3800C627602,stagajmp,"The Garden Village",52.566833,-2.245415,,,
3800C627801,stagajmt,"Shackleton Drive",52.598000,-2.208444,,,
3800C628001,stagajmw,"Edge Hill Drive",52.592232,-2.206867,,,
3800C628002,stagtjmw,"Edge Hill Drive",52.592365,-2.207237,,,
3800C628101,stagtjpa,"Littlewood Road",52.668346,-2.027558,,,
3800C628201,stagajpa,"Richmond Drive",52.592506,-2.198631,,,
3800C628202,stagtjpd,"Richmond Drive",52.592579,-2.198174,,,
3800C628401,stagajpd,"Turner Grove",52.595646,-2.192312,,,
3800C628402,stagajpg,"Turner Grove",52.595657,-2.192120,,,
3800C628701,stagpwga,"Poplar Road",52.653141,-2.017157,,,
3800C628702,stagpwgd,"Poplar Road",52.653111,-2.017024,,,
3800C628801,stagajta,"Stephenson Drive",52.600605,-2.205209,,,
3800C628802,stagtjpj,"Stephenson Drive",52.600479,-2.205252,,,
3800C628900,stagdgap,"Shackleton Drive",52.598236,-2.208298,,,
3800C629001,stagajtd,"Wrottesley Park Road",52.611378,-2.204299,,,
3800C629002,stagajtg,"Wrottesley Park Road",52.611477,-2.204034,,,
3800C629201,stagajtm,"Holyhead Road",52.620884,-2.234418,,,
3800C629202,stagajtp,"Holyhead Road",52.620960,-2.233872,,,
3800C629301,stagajtw,"Old Stafford Road",52.648808,-2.128456,,,
3800C629302,,"Old Stafford Road",52.649132,-2.128974,,,
3800C629401,stagajwa,"Brinsford Lane",52.642429,-2.126456,,,
3800C629402,stagajwd,"Ball Lane",52.640965,-2.126763,,,
3800C629500,stagajwg,"Ball Lane",52.640488,-2.126229,,,
3800C629600,stagajwj,"Brinsford Lane",52.643784,-2.127185,,,
3800C629701,stagajwm,"School Lane",52.660385,-2.138307,,,
3800C629702,stagajwp,"School Lane",52.660305,-2.138410,,,
3800C629801,stagtjpm,"Community Centre",52.646336,-2.092059,,,
3800C629802,stagtjpt,"Community Centre",52.646236,-2.092148,,,
3800C629901,stagtjpw,"Lime Tree Road",52.631142,-2.184209,,,
3800C629902,stagtjta,"Lime Tree Road",52.631222,-2.184076,,,
3800C630001,stagajwt,"Histons Hill",52.627262,-2.193928,,,
3800C630002,stagtjtd,"Histons Hill",52.627316,-2.193692,,,
3800C630101,stagamad,"Wheel Avenue",52.628918,-2.196595,,,
3800C630102,stagamag,"Wheel Avenue",52.629288,-2.197365,,,
3800C630401,,"The Royal Oak PH",52.682365,-2.243283,,,
3800C630501,stagamaj,"Castle Street",52.451874,-2.230973,,,
3800C630502,stagamam,"Castle Street",52.451920,-2.230855,,,
3800C630601,stagamap,"No. 143",52.463200,-2.184903,,,
3800C630602,stagamat,"No. 143",52.463066,-2.185359,,,
3800C630701,stagamaw,"Prestwood Drive",52.463497,-2.179518,,,
3800C630702,stagamda,"Prestwood Drive",52.463337,-2.178810,,,
3800C630901,,"Holyhead Road",52.610458,-2.205550,,,
3800C630902,,"Holyhead Road",52.610538,-2.205284,,,
3800C631300,,"Cheslyn Hay High School",52.663246,-2.046229,,,
3800C631401,,"Wood Hill Drive",52.528324,-2.195083,,,
3800C631601,stagtjtg,"Crown Inn",52.432655,-2.170552,,,
3800C631602,,"Crown Inn",52.432781,-2.170656,,,
3800C631801,,"no. 56",52.467289,-2.173247,,,
3800C631901,,"Westgate House",52.730812,-2.112868,,,
3800C631902,,"Bloor Homes",52.731674,-2.112292,,,
3800C632001,,"Frairs Gorse",52.467041,-2.171774,,,
3800C636301,stagamdm,"Hinksford Gardens",52.512642,-2.202395,,,
3800C636302,stagamdp,"Hinksford Gardens",52.512238,-2.202497,,,
3800C636701,stagamdt,"Kinver High School",52.453064,-2.233363,,,
3800C636702,stagamdw,"Kinver High School",52.453018,-2.233053,,,
3800C636801,stagamga,"Sterrymere Gardens",52.450569,-2.229936,,,
3800C636802,stagamgd,"Jubilee Gardens",52.450474,-2.229817,,,
3800C637001,stagamgj,"The Holloway",52.446903,-2.224340,,,
3800C637002,stagamgm,"The Holloway",52.446789,-2.224413,,,
3800C637101,stagamgp,"Orchard Grove",52.449909,-2.223193,,,
3800C637102,stagamgt,"Orchard Grove",52.450649,-2.222785,,,
3800C637301,stagamgw,"No. 50",52.453632,-2.213735,,,
3800C637302,stagamja,"No. 50",52.453659,-2.213147,,,
3800C637401,stagamjd,"Dunsley Hall Hotel",52.455498,-2.210154,,,
3800C637402,stagamjg,"Dunsley Hall Hotel",52.455536,-2.209388,,,
3800C637501,stagamjm,"Stourton Crescent",52.461887,-2.200470,,,
3800C637502,stagamjp,"Stourton Crescent",52.462086,-2.200324,,,
3800C637601,stagamjt,"Village Hall",52.462288,-2.197778,,,
3800C637602,stagamjw,"Village Hall",52.462395,-2.198206,,,
3800C637701,stagampa,"Living Springs Centre",52.462833,-2.193836,,,
3800C637702,stagampd,"Living Springs Centre",52.462765,-2.193336,,,
3800C638101,stagampg,"Goods Station Lane",52.728992,-2.115425,,,
3800C638102,stagampj,"Goods Station Lane",52.728596,-2.116149,,,
3800C638201,stagampm,"Chase View",52.734020,-2.111469,,,
3800C638202,stagampt,"Chase View",52.733562,-2.111409,,,
3800C638301,stagampw,"Lower Drayton Lane",52.738571,-2.110088,,,
3800C638302,stagamta,"Lower Drayton Lane",52.738419,-2.109851,,,
3800C638401,,"Stone Cottages",52.742401,-2.108365,,,
3800C638402,stagamtd,"Stone Cottages",52.742680,-2.108484,,,
3800C638501,stagamtg,"Swan Lane",52.748032,-2.107372,,,
3800C638502,stagamtj,"Swan Lane",52.748901,-2.107018,,,
3800C638601,stagamtm,"Dunston Hall",52.755871,-2.107347,,,
3800C638602,stagamtp,"Dunston Hall",52.754002,-2.106957,,,
3800C638701,stagtjtj,"Clay Street",52.725487,-2.115741,,,
3800C638702,stagamtw,"White Hart PH",52.725739,-2.115875,,,
3800C638703,stagamwa,"Crown Bridge",52.725487,-2.116318,,,
3800C638901,stagamwd,"Rodbaston Drive",52.710018,-2.123071,,,
3800C638902,stagamwg,"Rodbaston Drive",52.710098,-2.123264,,,
3800C639001,stagamwj,"Rodbaston College",52.700481,-2.127854,,,
3800C639002,,"Rodbaston College",52.700562,-2.128091,,,
3800C639101,stagamwm,"Station Drive",52.672855,-2.130686,,,
3800C639103,,"Station Drive",52.672710,-2.131321,,,
3800C639201,stagamwt,"Crateford Lane",52.682579,-2.133171,,,
3800C639202,stagapad,"Crateford Lane",52.683090,-2.133705,,,
3800C639501,stagapag,"Hyde Mill Croft",52.673431,-2.171639,,,
3800C639601,stagapaj,"Dean Street",52.673870,-2.171168,,,
3800C639701,stagapam,"Deansfield Close",52.678684,-2.168036,,,
3800C639702,,"Deansfield Close",52.678810,-2.168007,,,
3800C640201,stagapap,"Miller and Carter PH",52.549221,-2.169957,,,
3800C640202,stagapat,"Miller and Carter PH",52.549168,-2.170355,,,
3800C640301,stagapaw,"Withymere Lane",52.545422,-2.173216,,,
3800C640302,stagapda,"Withymere Lane",52.545811,-2.172038,,,
3800C641201,stagapga,"Hinksford Arms PH",52.504932,-2.195156,,,
3800C641202,stagapgd,"Hinksford Arms PH",52.505863,-2.197164,,,
3800C641701,stagapgj,"Albert Drive",52.516251,-2.201734,,,
3800C641702,stagapgm,"Albert Drive",52.516510,-2.201676,,,
3800C644501,stagapja,"Leese Lane",52.762585,-2.096797,,,
3800C644502,,"Leese Lane",52.762306,-2.096796,,,
3800C648701,stagapjd,"Greenacre Drive",52.621841,-2.181717,,,
3800C648702,stagapjg,"Greenacre Drive",52.621914,-2.182323,,,
3800C648801,stagapjm,"Birches Avenue",52.618389,-2.176016,,,
3800C648802,stagapjp,"Birches Avenue",52.619457,-2.177705,,,
3800C649301,stagapjw,"Offas Drive",52.598801,-2.202749,,,
3800C649302,stagapma,"Offas Drive",52.598541,-2.202718,,,
3800C649601,stagapmd,"Fairoaks Drive",52.649227,-2.014909,,,
3800C649602,stagapmg,"Fairoaks Drive",52.649200,-2.013401,,,
3800C649701,stagapmj,"Wood Lane",52.675911,-2.050103,,,
3800C649702,stagapmp,"Wood Lane",52.675831,-2.049970,,,
3800C649801,stagapmt,"Upper Landywood Lane",52.648266,-2.027398,,,
3800C649802,stagapmw,"Upper Landywood Lane",52.648354,-2.027487,,,
3800C650001,stagapta,"Weston Drive",52.654308,-2.022745,,,
3800C650002,stagaptd,"Weston Drive",52.653793,-2.023839,,,
3800C650101,stagaptg,"Landywood Green",52.657410,-2.023383,,,
3800C650102,stagaptj,"Landywood Green",52.657310,-2.023915,,,
3800C650201,stagaptm,"Coltsfoot View",52.657875,-2.031041,,,
3800C650202,stagaptp,"Coltsfoot View",52.658325,-2.031440,,,
3800C650301,stagaptw,"Hatherton Street",52.660297,-2.038597,,,
3800C650401,stagapwa,"Warstone Road",52.654343,-2.052177,,,
3800C650402,,"Warstone Road",52.654881,-2.051897,,,
3800C650501,stagapwd,"Cemetery Street",52.658947,-2.044480,,,
3800C650502,stagapwg,"Cemetery Street",52.658695,-2.044997,,,
3800C650601,stagapwj,"Wesley Avenue",52.661362,-2.038510,,,
3800C650701,stagapwm,"Queen Street",52.661667,-2.034681,,,
3800C650801,stagtjtm,"Coppice Lane",52.664490,-2.028828,,,
3800C650802,stagapwp,"Coppice Lane",52.664642,-2.028547,,,
3800C651001,stagapwt,"Littlewood Road",52.665947,-2.029361,,,
3800C690100,stagtjtp,"Barn End Road",52.757523,-2.096193,,,
3800C690301,stagatag,"Wood Hayes Road",52.623287,-2.090873,,,
3800C690302,stagataj,"Wood Hayes Road",52.622818,-2.090606,,,
3800C690401,stagatam,"No 157",52.625801,-2.091558,,,
3800C690402,stagatap,"No 157",52.626171,-2.091869,,,
3800C690501,stagatat,"No. 91",52.629585,-2.092511,,,
3800C690502,stagataw,"No. 91",52.629612,-2.092718,,,
3800C690601,stagatda,"Hilton Cross Business Park",52.637283,-2.089735,,,
3800C690602,stagatdg,"Hilton Cross Business Park",52.636356,-2.090753,,,
3800C690801,stagatdp,"Bursnips Road",52.636967,-2.046187,,,
3800C690802,,"Bursnips Road",52.637093,-2.046084,,,
3800C691001,stagatdt,"St Johns Primary Academy",52.631695,-2.057277,,,
3800C691002,stagatdw,"St Johns Primary Academy",52.631596,-2.057292,,,
3800C691201,stadwawd,"Moog",52.631229,-2.141288,,,
3800C691701,stagatga,"Birches Road",52.616909,-2.174386,,,
3800C691702,,"Birches Road",52.616928,-2.174164,,,
3800C691801,stagatgd,"Birches Bridge",52.623264,-2.185594,,,
3800C691901,stagatgj,"Fire Station",52.624508,-2.184816,,,
3800C691902,stagatgm,"Fire Station",52.625069,-2.183046,,,
3800C692001,stagatgp,"Church Road",52.535694,-2.185812,,,
3800C692201,stagatgt,"Saredon Hall Road",52.669788,-2.052802,,,
3800C692401,stagatja,"Wolverhampton Road",52.657665,-2.060771,,,
3800C692402,stagatjd,"Wolverhampton Road",52.657681,-2.061126,,,
3800C693301,,"Codsall Community High School",52.630398,-2.189140,,,
3800C693302,stagtjtw,"Codsall Community High School",52.629974,-2.189138,,,
3800C694001,stagatmd,"Hatherton Resevoir",52.668373,-2.035529,,,
3800C694002,stagatmg,"Hatherton Resevoir",52.668545,-2.035588,,,
3800C709100,stagawpa,"Wetherspoons PH",52.804512,-2.115863,,,
3800C709101,stagpjmg,"Wetherspoons PH",52.804523,-2.115670,,,
3800C709201,stagawpd,"The Green",52.803013,-2.114465,,,
3800C709202,stagagtg,"The Sun Inn",52.803669,-2.114392,,,
3800C709400,stadadtj,"Chell Road",52.807896,-2.121109,,,
3800C709701,stagawpt,"Cope Street",52.805550,-2.113670,,,
3800C709901,stagawtd,"Stafford College",52.806290,-2.119665,,,
3800C710103,stagawtw,"Gaol Square",52.809013,-2.117759,0,380G710100,
3800C710600,stagdadt,"Churchill Way",52.781700,-2.120887,,,
3800C710601,stagdadp,"Churchill Way",52.781799,-2.121184,,,
3800C710900,stagdagj,"School Lane",52.779827,-2.114270,,,
3800C710901,stagdagm,"School Lane",52.779606,-2.114507,,,
3800C711401,stagdajg,"Royal Oak PH",52.788078,-2.118014,,,
3800C718700,stagdgpg,"Mill Bank",52.804646,-2.118444,,,
3800C723101,stagdjdt,"Border Way",52.784771,-2.115514,,,
3800C723201,stagdjdw,"Nelson Way",52.783890,-2.117231,,,
3800C724101,stagdjpt,"Burton Square",52.788273,-2.119734,,,
3800C724102,stagdjpw,"Burton Square",52.788239,-2.119616,,,
3800C724201,stagdjta,"Hesketh Road",52.786808,-2.121183,,,
3800C724202,stagdjtd,"Hesketh Road",52.786034,-2.121804,,,
3800C724301,stagdjtg,"Oxbarn Road",52.783604,-2.122612,,,
3800C724302,stagdjtj,"Oxbarn Road",52.783436,-2.122568,,,
3800C724501,stagdjtp,"Manor Farm Crescent",52.780472,-2.119920,,,
3800C724601,stagdjtw,"Barn Close",52.779476,-2.117975,,,
3800C724901,stagdjwg,"Barn Bank Lane",52.776234,-2.112155,,,
3800C724902,stagdjwj,"Barn Bank Lane",52.775913,-2.111710,,,
3800C725101,stagdjwp,"Boon Grove",52.781601,-2.114230,,,
3800C725102,stagdjwt,"Boon Grove",52.782860,-2.114589,,,
3800C725201,stagdmad,"Rickerscote Road",52.784485,-2.114534,,,
3800C725202,,"Rickerscote Road",52.784286,-2.114652,,,
3800C725302,stagdmaj,"Stafford Manor High School",52.785858,-2.115487,,,
3800C725501,stagdmat,"Park Avenue",52.790764,-2.119964,,,
3800C725601,stagdmaw,"Highfield Grove",52.792534,-2.119331,,,
3800C725602,stagdmda,"Highfield Grove",52.791790,-2.119299,,,
3800C725701,stagdmdg,"Rowley Grove",52.796196,-2.117828,,,
3800C725702,stagdmdj,"Rowley Grove",52.795574,-2.117767,,,
3800C725801,stagdmdm,"Alexandra Road",52.799847,-2.115272,,,
3800C725802,stagdmdp,"Alexandra Road",52.800045,-2.115317,,,
3800C749101,stagjdgt,"Barnhurst Farm",52.773090,-2.109479,,,
3800C749102,stagjdgw,"Barnhurst Farm",52.773323,-2.109776,,,
3800C749301,stagjdjg,"Garage",52.771591,-2.108616,,,
3800C749302,stagjdjm,"Garage",52.771809,-2.108542,,,
3800C752200,stagpmda,"Poplar Way",52.782600,-2.118874,,,
3800C900900,stagmpgd,"The Fox Inn",52.595974,-1.685588,,,
3800C900901,stagmpgj,"The Fox Inn",52.596027,-1.685720,,,
3800C902401,stagmptd,"Corporation St",52.634098,-1.695850,,,
3800C903300,stagmpwa,"Mcdonalds Restaurant",52.627708,-1.703798,,,
3800C903301,stagmtad,"McDonalds Restaurant",52.627682,-1.703473,,,
3800C903700,,"Appian Close",52.610989,-1.682689,,,
3800C903701,stagmtap,"Appian Close",52.610878,-1.682808,,,
3800C904200,stagmtdw,"Parkfield Court",52.612366,-1.684525,,,
3800C904201,,"Parkfield Court",52.612125,-1.684173,,,
3800C904404,,"Victoria Road Bus Interchange",52.633968,-1.691404,,,
3800C904901,stagmtgm,"Cottage Farm Road",52.603287,-1.684384,,,
3800C904902,stagmtgp,"Cottage Farm Road",52.603134,-1.684193,,,
3800C905001,stagmtgt,"Welford Road",52.598827,-1.684180,,,
3800C905002,stagmtgw,"Welford Road",52.599277,-1.684044,,,
3800C909801,,"Bus Garage",52.636055,-1.695127,,,
3800C909901,stagpwtg,"Ventura Park Road",52.625446,-1.697594,,,
3800C909902,stagmwmt,"Shopping Centre",52.627487,-1.697802,,,
3800C919701,stagpdwt,"Asda Store",52.626255,-1.701607,,,
3800C919702,stagpgad,"Asda Store",52.626194,-1.702361,,,
3800C919801,stagpgag,"Lakeview Avenue",52.623718,-1.697857,,,
3800C920401,stagpgaj,"Sutton Avenue",52.621651,-1.697295,,,
3800C920402,stagpgam,"Sutton Avenue",52.622234,-1.697114,,,
3800C920501,stagpgap,"Bitterscote Lane",52.617668,-1.697692,,,
3800C920502,stagpgat,"Bitterscote Lane",52.618732,-1.697862,,,
3800C922401,stagpgma,"Fire Station",52.634144,-1.703223,,,
3800C922402,stagpgmd,"Fire Station",52.634029,-1.703534,,,
3800C922501,stagpgmg,"New Street",52.633873,-1.699265,,,
3800C922502,stagpgmj,"New Street",52.633999,-1.698658,,,
3800C925801,stagpjap,"Bletchley Drive",52.612995,-1.687194,,,
3800C925802,stagpjat,"Bletchley Drive",52.613487,-1.689332,,,
3800C926001,stagpjda,"Ascot Drive",52.593544,-1.685664,,,
3800C930901,stagpjgm,"Stanegate",52.608624,-1.682618,,,
3800C930902,stagpjgp,"Stanegate",52.608055,-1.682769,,,
3800C931001,stagpjgt,"Blackwood Road",52.605576,-1.683467,,,
3800C931002,stagpjgw,"Blackwood Road",52.605984,-1.683537,,,
3800C9E0001,stagpmpg,"The Rawlett School",52.651875,-1.703930,,,
420015692,wardmdmj,"Baginton Stores",52.371056,-1.492640,,,
4200F000600,waradgmt,"Crooks Lane",52.219326,-1.863816,,,
4200F001700,wardgwgt,"Ludford Close",52.521748,-1.562006,,,
4200F001701,wardgwgw,"Arley Lane",52.517685,-1.555813,,,
4200F001900,waratgaj,"Turn",52.517006,-1.554287,,,
4200F002000,waratgam,"Ludford Close",52.521721,-1.562404,,,
4200F002100,waratgap,"Garage",52.445992,-1.417261,,,
4200F002101,waratgat,"Grove Road",52.445511,-1.417900,,,
4200F002300,waratgdj,"War Memorial",52.512783,-1.584831,,,
4200F002301,waratgdm,"War Memorial",52.512428,-1.586367,,,
4200F002600,waradadp,"New Road",52.461884,-1.509762,,,
4200F002700,waradadt,"Vicarage Lane",52.461899,-1.509526,,,
4200F003100,waradagj,"Rushbrook Lane",52.335693,-1.858880,,,
4200F003101,waradagm,"Aspley Heath Lane",52.335594,-1.858704,,,
4200F003200,waradagp,"Crossroads",52.499313,-1.542784,,,
4200F003400,waradaja,"Bus Station",52.576981,-1.547997,,,
4200F004101,waradjgp,"Chatsworth Drive",52.513294,-1.445562,,,
4200F004102,waradjgt,"Raven Way",52.513672,-1.445660,,,
4200F004800,waradjmp,"Warwick Road",52.350506,-1.695387,,,
4200F004801,waradjmt,"Warwick Road",52.350479,-1.695211,,,
4200F005100,waradjpd,"Kimberley Road",52.370422,-1.491899,,,
4200F005101,waradjpg,"Church Road",52.367989,-1.492103,,,
4200F005102,waradgdg,"Oak Close",52.367950,-1.491853,,,
4200F005700,waradgjd,"Village Hall",52.458290,-1.429770,,,
4200F006200,waragdwt,"Oak Tree Close",52.243439,-1.740659,,,
4200F006300,waragjad,"Oak Tree Close",52.243610,-1.740658,,,
4200F006400,waragjag,"Railway Station",52.244381,-1.747640,,,
4200F006500,waragjaj,"Railway Station",52.244995,-1.748325,,,
4200F006700,waragjap,"All Saints Square",52.480453,-1.473392,,,
4200F006703,waragjat,"Iceland",52.480499,-1.473848,,,
4200F007300,waragjdw,"Chestnut Road",52.486225,-1.461454,,,
4200F007301,waragjga,"Chestnut Road",52.486118,-1.461175,,,
4200F007400,waragjgd,"Coventry Road",52.468102,-1.483285,,,
4200F007600,waragjgm,"Cardigan Road",52.475037,-1.516800,,,
4200F007601,wardmadm,"Cardigan Road",52.475037,-1.516594,,,
4200F007701,waramdap,"Wootton Street",52.483204,-1.465172,,,
4200F007702,waramdat,"Tewkesbury Drive",52.482506,-1.466285,,,
4200F008000,waramdgd,"Coventry Road",52.463375,-1.484061,,,
4200F008001,wardmapm,"Coventry Road",52.463490,-1.483986,,,
4200F008100,waramdgj,"Dark Lane",52.474758,-1.503465,,,
4200F008200,waramdgm,"Whitburn Road",52.476418,-1.513016,,,
4200F008201,wardmada,"Whitburn Road",52.476261,-1.513018,,,
4200F008300,waramdgp,"Dark Lane",52.474899,-1.503213,,,
4200F009301,waramgma,"Oakdale Road",52.395088,-1.426072,,,
4200F009302,waramgmd,"Oakdale Road",52.394928,-1.425971,,,
4200F009400,waramgmg,"Roseycombe",52.394367,-1.420012,,,
4200F009900,waramgpj,"Bus Shelter",52.312321,-1.367498,,,
4200F010000,waramgpm,"Old Post Office",52.310596,-1.369840,,,
4200F010001,waramjtp,"Main Street",52.312180,-1.367881,,,
4200F010002,wardjatm,"Old Post Office",52.310715,-1.369750,,,
4200F010900,warampaj,"Bramcote Barracks",52.494080,-1.398950,,,
4200F010901,wardmtdw,"Bramcote Barracks",52.494205,-1.398801,,,
4200F011000,warampam,"Memorial",52.384243,-1.400427,,,
4200F011200,warampaw,"Turn",52.386806,-1.370638,,,
4200F011201,wardjpdt,"Turn",52.386768,-1.370432,,,
4200F011600,warajtjw,"Dun Cow",52.409657,-1.363712,,,
4200F011602,warajtma,"Bulls Head",52.409496,-1.363774,,,
4200F011800,warajtmd,"Great Balance",52.411495,-1.368111,,,
4200F011900,warajtmg,"Post Office",52.410465,-1.362069,,,
4200F012000,warajtmj,"White Lion",52.410786,-1.361535,,,
4200F013001,wardmtga,"Three Horseshoes",52.348507,-1.469997,,,
4200F013002,wardawth,"Three Horseshoes",52.348541,-1.469791,,,
4200F013700,warampta,"Cromwell Lane",52.381187,-1.605765,,,
4200F013800,waramptd,"Cromwell Lane",52.380943,-1.606149,,,
4200F013900,waramptg,"Stores",52.367928,-1.595278,,,
4200F014000,waramptj,"Hinckley Road",52.505123,-1.395970,,,
4200F014001,waramptm,"Cicey Lane",52.505341,-1.396395,,,
4200F014600,warampwg,"Wall Hill Road",52.466076,-1.604288,,,
4200F015500,waramtgm,"Griffin Inn",52.515102,-1.645374,,,
4200F015501,wardjwdj,"Griffin Inn",52.515228,-1.645520,,,
4200F015600,waramtgp,"Coronation Road",52.381516,-1.342078,,,
4200F015601,waramtgt,"School Street",52.381668,-1.342076,,,
4200F015901,wardjamg,"Church",52.278893,-1.710433,,,
4200F016300,waramwmj,"Post Office",52.498459,-1.706345,,,
4200F016400,waramwmp,"Coleshill School",52.485538,-1.706372,,,
4200F016500,waramwmt,"Lichfield Road",52.504105,-1.707839,,,
4200F016600,waramwmw,"Sumner Road",52.497169,-1.705263,,,
4200F016601,wardmgtw,"Sumner Road",52.497135,-1.705499,,,
4200F016700,waramwpa,"Mill Terrace",52.490032,-1.474589,,,
4200F016723,waramwpd,"Mill Terrace",52.489872,-1.474694,,,
4200F017300,waramwtd,"Saracens Head",52.471992,-1.569153,,,
4200F017301,wardjpmj,"Saracens Head",52.471878,-1.569302,,,
4200F017400,waramwtg,"Church",52.463329,-1.557183,,,
4200F017500,waramwtj,"Bull & Butcher",52.462322,-1.589824,,,
4200F017600,waramwtm,"Coughton Court",52.241383,-1.884105,,,
4200F017602,waramwtp,"Coughton Court",52.241428,-1.883783,,,
4200F018200,warapadp,"Beehive",52.532242,-1.736384,,,
4200F018300,warapadt,"Post Office",52.533600,-1.737393,,,
4200F018301,wardpgag,"Post Office",52.533520,-1.737571,,,
4200F018400,warapadw,"White Horse",52.534672,-1.738861,,,
4200F018401,warapaga,"White Horse",52.534763,-1.739038,,,
4200F018900,warapagt,"Woodside",52.511250,-1.593583,,,
4200F018901,wardjgtw,"Woodside",52.511395,-1.593626,,,
4200F019800,warajwad,"School Street",52.337391,-1.290879,,,
4200F019801,wardpatd,"School Street",52.337471,-1.290672,,,
4200F020800,warapatm,"Reservoir Hotel",52.363255,-1.829290,,,
4200F020900,warapatp,"Golden Lion",52.411957,-1.318382,,,
4200F020901,warapatw,"Golden Lion",52.411678,-1.318240,,,
4200F022601,wardgdtj,"Crossroads",52.483372,-1.588245,,,
4200F022602,wardjmaw,"Crossroads",52.483379,-1.588510,,,
4200F022900,wardgdwg,"Shops",52.273186,-1.600156,,,
4200F023000,wardgdwj,"Forshaw Heath Lane",52.361542,-1.870810,,,
4200F023100,wardgdwm,"Cooks Lane",52.328789,-1.377183,,,
4200F023101,wardjtaj,"Birdingbury Lane",52.328678,-1.377023,,,
4200F023300,wardgdwt,"Bulls Head",52.518864,-1.634924,,,
4200F023301,wardjmap,"Bulls Head",52.518894,-1.635204,,,
4200F023400,wardgjad,"Crossroads",52.519775,-1.635580,,,
4200F023600,wardgjpt,"British Motor Museum",52.189201,-1.475139,,,
4200F023900,wardgjtg,"Penn Lane",52.339420,-1.849636,,,
4200F023901,wardjtam,"Penn Lane",52.339520,-1.849797,,,
4200F025100,wardgjma,"Lamp Lane",52.501209,-1.578194,,,
4200F025101,wardgjmd,"Infant School",52.504524,-1.568203,,,
4200F025102,wardgjmg,"Infant School",52.504803,-1.567905,,,
4200F026002,wardpjmw,"Edison Road",52.526924,-1.711491,,,
4200F026003,wardpjpa,"Edison Road",52.526699,-1.711728,,,
4200F026004,wardpjpt,"Wincanton",52.522110,-1.695340,,,
4200F026006,wardpjpw,"Nestle",52.523884,-1.700869,,,
4200F026007,wardpjta,"Nestle",52.523777,-1.701061,,,
4200F026100,wardgjaj,"Kerry Lea",52.406376,-1.306179,,,
4200F026101,wardjpat,"Lodge Farm",52.406933,-1.307434,,,
4200F026102,wardjtpd,"Lodge Farm",52.406807,-1.307524,,,
4200F026103,wardmwdt,"Kerry Lea",52.406528,-1.306073,,,
4200F026200,wardgjam,"Old Lion",52.408989,-1.297788,,,
4200F026201,wardgjap,"Easenhall Road",52.406113,-1.296863,,,
4200F026202,wardgjat,"Easenhall Road",52.406021,-1.296600,,,
4200F026700,wardgjdw,"Green",52.548271,-1.521025,,,
4200F027301,wardmtaw,"Starmer Place",52.302746,-1.658097,,,
4200F027500,wardgmwd,"Tudor Dairies",52.289940,-1.780412,,,
4200F027700,wardgmwj,"Three Tuns",52.293625,-1.779675,,,
4200F027800,wardgmwm,"Three Tuns",52.293758,-1.779308,,,
4200F027801,wardtgtj,"Henley High School",52.286308,-1.776091,,,
4200F029801,warajwdg,"Church",52.346291,-1.578153,,,
4200F029802,warajwdj,"Church",52.346275,-1.578535,,,
4200F029900,warajwdm,"Willow Meer",52.347591,-1.567116,,,
4200F030001,waragtdm,"Henry Street",52.347858,-1.574688,,,
4200F030002,waragtdp,"Spring Lane",52.347652,-1.574558,,,
4200F030100,waragtdt,"Moseley Road",52.337280,-1.565279,,,
4200F030401,waragtgp,"Clinton Avenue",52.349884,-1.592624,,,
4200F030500,waragtgw,"Shops",52.343887,-1.579923,,,
4200F030501,waragtja,"Shops",52.343979,-1.580010,,,
4200F030600,waragtjd,"Common Lane",52.357498,-1.567239,,,
4200F030601,wardamam,"Crackley",52.361156,-1.562578,,,
4200F030700,wardamap,"Cornhill Grove",52.346443,-1.555971,,,
4200F030701,wardpmad,"Cornhill Grove",52.346451,-1.555765,,,
4200F031000,wardamda,"Whitemoor Road",52.345333,-1.567255,,,
4200F031001,wardamdg,"Whitemoor Road",52.345367,-1.567064,,,
4200F031200,wardamdm,"Mayfield Drive",52.342575,-1.555481,,,
4200F031201,wardpjwp,"Mayfield Drive",52.342583,-1.555231,,,
4200F031300,wardamdp,"Shops",52.346985,-1.559180,,,
4200F031301,wardamdt,"Shops",52.347061,-1.559796,,,
4200F031402,wardpjwm,"Rose Croft",52.353687,-1.587406,,,
4200F031701,warapdtm,"Leyes Lane",52.347183,-1.564565,,,
4200F032100,warapdwg,"Leyes Lane",52.348000,-1.556660,,,
4200F032101,wardpmag,"Leyes Lane",52.348019,-1.556439,,,
4200F032200,warapdwj,"St Johns Church",52.337040,-1.573133,,,
4200F032201,warapdwm,"Clarendon Road",52.338844,-1.575009,,,
4200F032202,warapdwp,"St Johns Street",52.337959,-1.574372,,,
4200F032400,warapgad,"Offa Drive",52.345913,-1.573664,,,
4200F033100,warapjdg,"Kings Coughton Lane",52.228695,-1.880434,,,
4200F033101,warapjdj,"Moat House Inn",52.228722,-1.880171,,,
4200F033300,warapjdp,"Mill Crescent",52.560078,-1.682155,,,
4200F033301,warapjdt,"White Swan",52.565250,-1.681395,,,
4200F033302,wardpgdt,"Mill Crescent",52.560059,-1.682302,,,
4200F033400,warapjdw,"White Swan",52.565193,-1.682413,,,
4200F034000,waratatd,"Church",52.262772,-1.721366,,,
4200F034100,waratatg,"Station Lane",52.337330,-1.725595,,,
4200F034300,waratatm,"Green",52.376701,-1.311344,,,
4200F034600,waratawd,"Green",52.537956,-1.701142,,,
4200F035400,warapmpj,"Hurrans",52.282791,-1.549483,,,
4200F035700,warapmpw,"Railway Station",52.284100,-1.536584,,,
4200F035800,warapmta,"Parish Church",52.285984,-1.533002,,,
4200F035900,warapmtg,"Railway Station",52.284176,-1.535367,,,
4200F036100,wardamgj,"Crown Hotel",52.283989,-1.532965,,,
4200F036401,wardamgw,"Wheatsheaf",52.277813,-1.533543,,,
4200F036600,wardamjd,"Upper Parade",52.292503,-1.535734,,,
4200F037101,wardamjt,"Winyates Road",52.201019,-1.486208,,,
4200F040401,waraptad,"Green",52.376568,-1.311420,,,
4200F041600,waratjmd,"Mill Lane",52.310608,-1.728150,,,
4200F041900,waratjmt,"Church",52.567619,-1.528235,,,
4200F042100,waratjpa,"Post Office",52.569519,-1.529292,,,
4200F042101,waratjpd,"Post Office",52.569447,-1.529027,,,
4200F042400,waratjpm,"Boot",52.286831,-1.885922,,,
4200F042600,waratjpt,"Dog",52.298504,-1.877739,,,
4200F042601,wardtgpd,"Dog",52.297894,-1.878884,,,
4200F042700,waratjpw,"Village Hall",52.291508,-1.884575,,,
4200F042900,waratjtd,"Black Horse",52.318203,-1.402712,,,
4200F043000,waratjtg,"Coventry Road",52.317673,-1.402425,,,
4200F043300,waratjtm,"Green Man",52.582081,-1.741385,,,
4200F043700,waratmwm,"Church",52.444019,-1.318786,,,
4200F044100,waratpag,"N.A.C. Main Entrance",52.338512,-1.518595,,,
4200F044101,waratpah,"Abbey Park",52.342464,-1.500703,,,
4200F044501,waratpap,"Gate Lane",52.530861,-1.660902,,,
4200F044600,waratpat,"The Gate",52.531349,-1.661488,,,
4200F044900,waratpdj,"Crown",52.390934,-1.283026,,,
4200F044901,wardtdwg,"Church",52.390713,-1.286263,,,
4200F045000,waratpdm,"Yates Avenue",52.384106,-1.271691,,,
4200F045200,warajwtd,"Parkfield Road",52.390121,-1.280732,,,
4200F045201,warajwtg,"Grange Road",52.388088,-1.277768,,,
4200F045202,warajwtj,"Grange Road",52.387714,-1.276848,,,
4200F046400,warawdgt,"New Inn",52.266102,-1.667655,,,
4200F046800,warawdjg,"Walsingham Drive",52.499012,-1.481950,,,
4200F046900,warawdjm,"National Dairies",52.500244,-1.482186,,,
4200F047000,warawdjp,"Bermuda Village",52.507599,-1.480273,,,
4200F047002,warawdjw,"Hare & Hounds",52.513149,-1.483257,,,
4200F047003,warawdjq,"Rider Close",52.507530,-1.481143,,,
4200F047223,warawdmt,"Trafford Drive",52.531235,-1.514548,,,
4200F047300,warawdmw,"Boot Inn",52.514153,-1.472488,,,
